{"features":[{"type":"Feature","geometry":{"type":"Point","coordinates":[38.041296400323496,63.93528750029921]},"properties":{"city":null,"house":null,"id":1831,"name":"Погибшим в Великой Отечественной войне","post":null,"street":null,"x":38.041296400323496,"y":63.93528750029921}},{"type":"Feature","geometry":{"type":"Point","coordinates":[38.100616999554966,63.90895360026576]},"properties":{"city":null,"house":null,"id":1832,"name":"Погибшим в Великой Отечественной войне","post":null,"street":null,"x":38.100616999554966,"y":63.90895360026573}},{"type":"Feature","geometry":{"type":"Point","coordinates":[38.057172400001576,63.89700120020257]},"properties":{"city":null,"house":null,"id":1833,"name":"Ветеранам Великой Отечественной войны","post":null,"street":null,"x":38.057172400001576,"y":63.89700120020257}},{"type":"Feature","geometry":{"type":"Point","coordinates":[38.09411580021562,63.90534550009779]},"properties":{"city":null,"house":null,"id":1834,"name":"Воинам, погибшим в локальных войнах","post":null,"street":null,"x":38.094115800215626,"y":63.90534550009778}},{"type":"Feature","geometry":{"type":"Point","coordinates":[38.09301009986505,63.90589340012061]},"properties":{"city":null,"house":null,"id":1835,"name":"Корабль \"Персей\"","post":null,"street":null,"x":38.093010099865054,"y":63.9058934001206}},{"type":"Feature","geometry":{"type":"Point","coordinates":[38.09669909985123,63.90306460021123]},"properties":{"city":null,"house":null,"id":1836,"name":"Онежским капитанам","post":null,"street":null,"x":38.09669909985123,"y":63.90306460021121}},{"type":"Feature","geometry":{"type":"Point","coordinates":[38.09632219999565,63.90369280027029]},"properties":{"city":null,"house":null,"id":1837,"name":"Корабелам","post":null,"street":null,"x":38.09632219999566,"y":63.903692800270306}},{"type":"Feature","geometry":{"type":"Point","coordinates":[38.095369000342615,63.904450200180996]},"properties":{"city":null,"house":null,"id":1838,"name":"А. О. Шабалину","post":null,"street":null,"x":38.09536900034261,"y":63.90445020018099}},{"type":"Feature","geometry":{"type":"Point","coordinates":[38.1150511996088,63.90061200023456]},"properties":{"city":null,"house":null,"id":1839,"name":"Мемориальная доска Кучину А.С.","post":null,"street":null,"x":38.11505119960881,"y":63.90061200023458}},{"type":"Feature","geometry":{"type":"Point","coordinates":[38.11691710016692,63.90082770025133]},"properties":{"city":null,"house":null,"id":1840,"name":"Свято-Троицкий собор (1800-1814)","post":null,"street":null,"x":38.11691710016693,"y":63.900827700251305}},{"type":"Feature","geometry":{"type":"Point","coordinates":[38.115579000262436,63.90150710012986]},"properties":{"city":null,"house":null,"id":1841,"name":"Ленин","post":null,"street":null,"x":38.11557900026243,"y":63.90150710012986}},{"type":"Feature","geometry":{"type":"Point","coordinates":[38.11431429990311,63.900383000127434]},"properties":{"city":null,"house":null,"id":1842,"name":"Дом жилой","post":null,"street":null,"x":38.11431429990311,"y":63.900383000127455}},{"type":"Feature","geometry":{"type":"Point","coordinates":[38.145320299619854,63.896244000049265]},"properties":{"city":null,"house":null,"id":1843,"name":"Первой забастовке 1905-1907 годы","post":null,"street":null,"x":38.145320299619875,"y":63.896244000049286}},{"type":"Feature","geometry":{"type":"Point","coordinates":[38.164542500375106,63.89529580013149]},"properties":{"city":null,"house":null,"id":1844,"name":"Воинское захоронение бойцов Карельского фронта, умерших от РАН в Эг № 2754, г. Онега","post":null,"street":null,"x":38.1645425003751,"y":63.89529580013149}},{"type":"Feature","geometry":{"type":"Point","coordinates":[38.10100747025952,63.902549402442965]},"properties":{"city":null,"house":null,"id":5762,"name":"historic","post":null,"street":null,"x":38.10100747025952,"y":63.902549402442965}}],"type":"FeatureCollection"}