{"features":[{"type":"Feature","geometry":{"type":"Point","coordinates":[40.71430979968035,64.5953957993641]},"properties":{"city":null,"house":null,"id":1720,"name":"Як-18Т","post":null,"street":null,"x":40.71430979968036,"y":64.59539579936407}},{"type":"Feature","geometry":{"type":"Point","coordinates":[40.70948519981758,64.59433319924423]},"properties":{"city":null,"house":null,"id":1721,"name":"МиГ-31","post":null,"street":null,"x":40.709485199817586,"y":64.59433319924423}},{"type":"Feature","geometry":{"type":"Point","coordinates":[40.700766699642244,64.59202119927433]},"properties":{"city":null,"house":null,"id":1722,"name":"Су-9","post":null,"street":null,"x":40.70076669964225,"y":64.59202119927434}},{"type":"Feature","geometry":{"type":"Point","coordinates":[40.71134180011756,64.5959692993408]},"properties":{"city":null,"house":null,"id":1724,"name":"Ил-14","post":null,"street":null,"x":40.71134180011756,"y":64.5959692993408}},{"type":"Feature","geometry":{"type":"Point","coordinates":[40.71157620021958,64.59627909947466]},"properties":{"city":null,"house":null,"id":1725,"name":"Не вернувшимся из полёта...","post":null,"street":null,"x":40.71157620021959,"y":64.59627909947467}},{"type":"Feature","geometry":{"type":"Point","coordinates":[40.71351311978747,64.59543539987354]},"properties":{"city":"Талажский авиагородок","house":"3","id":7136,"name":"Музей авиации Севера","post":"163053","street":"Аэропорт Архангельск","x":40.71351312,"y":64.5954354}},{"type":"Feature","geometry":{"type":"Point","coordinates":[40.71463656006832,64.59496163016027]},"properties":{"city":"Талажский авиагородок","house":"6","id":7363,"name":"АэроОтель, ООО","post":"163053","street":"Аэропорт Архангельск","x":40.71463656,"y":64.59496163}},{"type":"Feature","geometry":{"type":"Point","coordinates":[40.71031530961546,64.59395728015289]},"properties":{"city":"Талажский авиагородок","house":"5 ст1","id":8526,"name":"уЛЁТНЫЙ, мини-отель","post":"163053","street":"Аэропорт Архангельск","x":40.71031531,"y":64.59395728}},{"type":"Feature","geometry":{"type":"Point","coordinates":[40.71396121023094,64.59615724005073]},"properties":{"city":"Талажский авиагородок","house":"3 к4","id":26485,"name":"Runway, магазин сувениров и товаров в дорогу","post":"163053","street":"Аэропорт Архангельск","x":40.71396121,"y":64.59615724}},{"type":"Feature","geometry":{"type":"Point","coordinates":[40.71396121023094,64.59615724005073]},"properties":{"city":"Талажский авиагородок","house":"3 к4","id":27020,"name":"Сувениры Поморья","post":"163053","street":"Аэропорт Архангельск","x":40.71396121,"y":64.59615724}},{"type":"Feature","geometry":{"type":"Point","coordinates":[40.71396121023094,64.59615724005073]},"properties":{"city":"Талажский авиагородок","house":"3 к4","id":28302,"name":"Архангельск, международный аэропорт им. Ф.А. Абрамова","post":"163053","street":"Аэропорт Архангельск","x":40.71396121,"y":64.59615724}},{"type":"Feature","geometry":{"type":"Point","coordinates":[40.71222268000031,64.59354257011665]},"properties":{"city":"Талажский авиагородок","house":"5","id":28309,"name":"Аэропорт Архангельск-сервис, ООО","post":"163053","street":"Аэропорт Архангельск","x":40.71222268,"y":64.59354257}},{"type":"Feature","geometry":{"type":"Point","coordinates":[40.71088009031607,64.59428965988604]},"properties":{"city":"Талажский авиагородок","house":"10","id":28316,"name":"Архангельск, международный аэропорт им. Ф.А. Абрамова","post":"163053","street":"Аэропорт Архангельск","x":40.71088009,"y":64.59428966}},{"type":"Feature","geometry":{"type":"Point","coordinates":[40.71209255004831,64.59627262985404]},"properties":{"city":"Талажский авиагородок","house":"3 к3","id":28318,"name":"Архангельск, международный аэропорт им. Ф.А. Абрамова","post":"163053","street":"Аэропорт Архангельск","x":40.71209255,"y":64.59627263}}],"type":"FeatureCollection"}