{"features":[{"type":"Feature","geometry":{"type":"Point","coordinates":[40.81022963000007,64.41081531000002]},"properties":{"city":"Новодвинск (Новодвинск городской округ)","cpi_id":125731,"house":"9е","id":4001,"name":"Новодвинская центральная городская больница, ГБУЗ","post":"164900","street":"3-й Пятилетки","x":40.81022963,"y":64.41081531}},{"type":"Feature","geometry":{"type":"Point","coordinates":[40.812156430000094,64.41720055000013]},"properties":{"city":"Новодвинск (Новодвинск городской округ)","cpi_id":755251,"house":"32","id":23833,"name":"Александрия, стоматологическая клиника","post":"164902","street":"50-летия Октября","x":40.81215643,"y":64.41720055}},{"type":"Feature","geometry":{"type":"Point","coordinates":[40.8287958400001,64.41337575000009]},"properties":{"city":"Новодвинск (Новодвинск городской округ)","cpi_id":766362,"house":"3а","id":24187,"name":"Надежда, ООО, стоматологический кабинет","post":"164900","street":"50-летия Октября","x":40.82879584,"y":64.41337575}},{"type":"Feature","geometry":{"type":"Point","coordinates":[40.81188763000006,64.4109847100001]},"properties":{"city":"Новодвинск (Новодвинск городской округ)","cpi_id":876936,"house":"9Б","id":27775,"name":"Новодвинская центральная городская больница, ГБУЗ","post":"164900","street":"3-й Пятилетки","x":40.81188763,"y":64.41098471}},{"type":"Feature","geometry":{"type":"Point","coordinates":[40.8362541800001,64.41368608000005]},"properties":{"city":"Новодвинск (Новодвинск городской округ)","cpi_id":954054,"house":"2","id":30292,"name":"Жемчужина Севера, санаторий-профилакторий","post":"164900","street":"Советов","x":40.83625418,"y":64.41368608}},{"type":"Feature","geometry":{"type":"Point","coordinates":[40.80840845000008,64.41202567000005]},"properties":{"city":"Новодвинск (Новодвинск городской округ)","cpi_id":1308436,"house":"9 к2","id":41565,"name":"Новодвинская центральная городская больница, ГБУЗ","post":"164900","street":"3-й Пятилетки","x":40.80840845,"y":64.41202567}},{"type":"Feature","geometry":{"type":"Point","coordinates":[40.83235086000013,64.41235714000004]},"properties":{"city":"Новодвинск (Новодвинск городской округ)","cpi_id":1628064,"house":"4","id":51714,"name":"Стоматологический кабинет","post":"164900","street":"Советов","x":40.83235086,"y":64.41235714}},{"type":"Feature","geometry":{"type":"Point","coordinates":[40.80985736000016,64.41240107000004]},"properties":{"city":"Новодвинск (Новодвинск городской округ)","cpi_id":2579340,"house":"11","id":81938,"name":"Центр гигиены и эпидемиологии в Архангельской области, ФБУЗ","post":"164900","street":"3-й Пятилетки","x":40.80985736,"y":64.41240107}},{"type":"Feature","geometry":{"type":"Point","coordinates":[40.80867921000004,64.41141859000007]},"properties":{"city":"Новодвинск (Новодвинск городской округ)","cpi_id":2721871,"house":"9д","id":86539,"name":"Новодвинская центральная городская больница, ГБУЗ","post":"164900","street":"3-й Пятилетки","x":40.80867921,"y":64.41141859}},{"type":"Feature","geometry":{"type":"Point","coordinates":[40.79990468000008,64.41659091000008]},"properties":{"city":"Новодвинск (Новодвинск городской округ)","cpi_id":2767836,"house":"23","id":88114,"name":"Александрия, стоматологическая клиника","post":"164901","street":"3-й Пятилетки","x":40.79990468,"y":64.41659091}},{"type":"Feature","geometry":{"type":"Point","coordinates":[40.8362541800001,64.41368608000005]},"properties":{"city":"Новодвинск (Новодвинск городской округ)","cpi_id":3009040,"house":"2","id":95881,"name":"Центр лечебной физкультуры","post":"164900","street":"Советов","x":40.83625418,"y":64.41368608}},{"type":"Feature","geometry":{"type":"Point","coordinates":[40.81248684000015,64.41237439000011]},"properties":{"city":"Новодвинск (Новодвинск городской округ)","cpi_id":3082843,"house":"9","id":98226,"name":"Новодвинская центральная городская больница, ГБУЗ","post":"164900","street":"3-й Пятилетки","x":40.81248684,"y":64.41237439}},{"type":"Feature","geometry":{"type":"Point","coordinates":[40.8140033500001,64.41319378000009]},"properties":{"city":"Новодвинск (Новодвинск городской округ)","cpi_id":537869,"house":"9г","id":110924,"name":"Новодвинская центральная городская больница, ГБУЗ","post":"164900","street":"3-й Пятилетки","x":40.81400335,"y":64.41319378}},{"type":"Feature","geometry":{"type":"Point","coordinates":[40.81022963000007,64.41081531000002]},"properties":{"city":"Новодвинск (Новодвинск городской округ)","cpi_id":591460,"house":"9е","id":111615,"name":"Женская консультация, Новодвинская центральная городская больница","post":"164900","street":"3-й Пятилетки","x":40.81022963,"y":64.41081531}},{"type":"Feature","geometry":{"type":"Point","coordinates":[40.80860284000007,64.42201490000011]},"properties":{"city":"Новодвинск (Новодвинск городской округ)","cpi_id":958440,"house":"30","id":116337,"name":"Стоматологический кабинет","post":"164900","street":"Ворошилова","x":40.80860284,"y":64.4220149}},{"type":"Feature","geometry":{"type":"Point","coordinates":[40.81852953000006,64.41381507000006]},"properties":{"city":"Новодвинск (Новодвинск городской округ)","cpi_id":1643987,"house":"2","id":125358,"name":"Invitro, медицинская компания","post":"164900","street":"3-й Пятилетки","x":40.81852953,"y":64.41381507}},{"type":"Feature","geometry":{"type":"Point","coordinates":[40.81732673000005,64.41382709000005]},"properties":{"city":"Новодвинск (Новодвинск городской округ)","cpi_id":1741621,"house":"4","id":126639,"name":"Александрия, стоматологическая клиника","post":"164900","street":"3-й Пятилетки","x":40.81732673,"y":64.41382709}},{"type":"Feature","geometry":{"type":"Point","coordinates":[40.80675201000001,64.41502924000014]},"properties":{"city":"Новодвинск (Новодвинск городской округ)","cpi_id":2055404,"house":"2","id":130763,"name":"Жемчужина, стоматология","post":"164902","street":"Ломоносова","x":40.80675201,"y":64.41502924}},{"type":"Feature","geometry":{"type":"Point","coordinates":[40.8235961300001,64.42389849000007]},"properties":{"city":"Новодвинск (Новодвинск городской округ)","cpi_id":2326417,"house":"3","id":134219,"name":"Новодвинский медицинский центр, ООО","post":"164900","street":"Декабристов","x":40.82359613,"y":64.42389849}},{"type":"Feature","geometry":{"type":"Point","coordinates":[40.82413519000009,64.41116422000007]},"properties":{"city":"Новодвинск (Новодвинск городской округ)","cpi_id":35956,"house":"19","id":146596,"name":"Александрия, стоматологическая клиника","post":"164900","street":"Советов","x":40.82413519,"y":64.41116422}},{"type":"Feature","geometry":{"type":"Point","coordinates":[40.799405960000065,64.41737589000003]},"properties":{"city":"Новодвинск (Новодвинск городской округ)","cpi_id":806086,"house":"32","id":157006,"name":"Ландыш, стоматология","post":"164902","street":"3-й Пятилетки","x":40.79940596,"y":64.41737589}}],"type":"FeatureCollection"}