{"features":[{"type":"Feature","geometry":{"type":"Point","coordinates":[38.04332610000009,63.93313230000007]},"properties":{"city":"","cpi_id":1376,"house":"","id":198478,"name":"Санаторий-профилакторий \"Поморье\"","post":"","street":"","x":38.0433261,"y":63.9331323}},{"type":"Feature","geometry":{"type":"Point","coordinates":[38.04843440000018,63.93580570000011]},"properties":{"city":"","cpi_id":70275,"house":"","id":203687,"name":"Детская больница","post":"","street":"","x":38.0484344,"y":63.9358057}},{"type":"Feature","geometry":{"type":"Point","coordinates":[38.10294460000009,63.90341710000012]},"properties":{"city":"","cpi_id":15474,"house":"","id":211656,"name":"Санитарно-эпидемиологическая служба","post":"","street":"","x":38.1029446,"y":63.9034171}},{"type":"Feature","geometry":{"type":"Point","coordinates":[38.118286700000056,63.90459360000011]},"properties":{"city":"","cpi_id":15483,"house":"","id":211665,"name":"Родильное отделение","post":"","street":"","x":38.1182867,"y":63.9045936}},{"type":"Feature","geometry":{"type":"Point","coordinates":[38.11796860000012,63.90371700000006]},"properties":{"city":"","cpi_id":15484,"house":"","id":211666,"name":"Инфекционное отделение","post":"","street":"","x":38.1179686,"y":63.903717}},{"type":"Feature","geometry":{"type":"Point","coordinates":[38.11720370000014,63.90401140000003]},"properties":{"city":"","cpi_id":15485,"house":"","id":211667,"name":"Поликлиника","post":"","street":"","x":38.1172037,"y":63.9040114}}],"type":"FeatureCollection"}