{"features":[{"type":"Feature","geometry":{"type":"Point","coordinates":[39.78485166000013,64.5612439600001]},"properties":{"city":"Северодвинск (Северодвинск городской округ)","cpi_id":16904,"house":"2а","id":540,"name":"Северодвинская городская больница №1, ГБУЗ","post":"164512","street":"Серго Орджоникидзе","x":39.78485166,"y":64.56124396}},{"type":"Feature","geometry":{"type":"Point","coordinates":[39.76807628000014,64.5479780100001]},"properties":{"city":"Северодвинск (Северодвинск городской округ)","cpi_id":37139,"house":"97","id":1196,"name":"Стоматошка, ООО, центр семейной стоматологии","post":"164522","street":"Ломоносова","x":39.76807628,"y":64.54797801}},{"type":"Feature","geometry":{"type":"Point","coordinates":[39.85642633000009,64.56137730000009]},"properties":{"city":"Северодвинск (Северодвинск городской округ)","cpi_id":46921,"house":"34","id":1499,"name":"Семейный доктор, ООО, медицинский центр","post":"164521","street":"Железнодорожная","x":39.85642633,"y":64.5613773}},{"type":"Feature","geometry":{"type":"Point","coordinates":[39.82111901000014,64.55638360000012]},"properties":{"city":"Северодвинск (Северодвинск городской округ)","cpi_id":96776,"house":"47а","id":3098,"name":"Северодвинская городская больница №1, ГБУЗ","post":"164504","street":"Ломоносова","x":39.82111901,"y":64.5563836}},{"type":"Feature","geometry":{"type":"Point","coordinates":[39.78485166000013,64.5612439600001]},"properties":{"city":"Северодвинск (Северодвинск городской округ)","cpi_id":205413,"house":"2а","id":6489,"name":"Эко-клиник, ООО, медицинский центр","post":"164512","street":"Серго Орджоникидзе","x":39.78485166,"y":64.56124396}},{"type":"Feature","geometry":{"type":"Point","coordinates":[39.81517460000008,64.56204061000004]},"properties":{"city":"Северодвинск (Северодвинск городской округ)","cpi_id":217762,"house":"55","id":6871,"name":"Добрый доктор, ООО, многопрофильная клиника","post":"164501","street":"Советская","x":39.8151746,"y":64.56204061}},{"type":"Feature","geometry":{"type":"Point","coordinates":[39.85339963000008,64.55582327000009]},"properties":{"city":"Северодвинск (Северодвинск городской округ)","cpi_id":244371,"house":"76а","id":7684,"name":"Северодвинская городская больница №1, ГБУЗ","post":"164521","street":"Беломорский проспект","x":39.85339963,"y":64.55582327}},{"type":"Feature","geometry":{"type":"Point","coordinates":[39.792095610000075,64.59429011000003]},"properties":{"city":"Северодвинск (Северодвинск городской округ)","cpi_id":262620,"house":"11","id":8261,"name":"Северодвинский психоневрологический диспансер","post":"164509","street":"Макаренко","x":39.79209561,"y":64.59429011}},{"type":"Feature","geometry":{"type":"Point","coordinates":[39.79645137000009,64.55186187000004]},"properties":{"city":"Северодвинск (Северодвинск городской округ)","cpi_id":272990,"house":"75","id":8593,"name":"Благополучие, центр","post":"164500","street":"Ломоносова","x":39.79645137,"y":64.55186187}},{"type":"Feature","geometry":{"type":"Point","coordinates":[39.82169738000009,64.56684154000007]},"properties":{"city":"Северодвинск (Северодвинск городской округ)","cpi_id":356029,"house":"4","id":11231,"name":"Стома, стоматологический кабинет","post":"164501","street":"Ленина проспект","x":39.82169738,"y":64.56684154}},{"type":"Feature","geometry":{"type":"Point","coordinates":[39.799797270000106,64.53913977000005]},"properties":{"city":"Северодвинск (Северодвинск городской округ)","cpi_id":415397,"house":"10","id":13091,"name":"Стоматологический кабинет","post":"164502","street":"Лебедева","x":39.79979727,"y":64.53913977}},{"type":"Feature","geometry":{"type":"Point","coordinates":[39.81517460000008,64.56204061000004]},"properties":{"city":"Северодвинск (Северодвинск городской округ)","cpi_id":471817,"house":"55","id":14883,"name":"Стоматолог добрый, стоматологический центр","post":"164501","street":"Советская","x":39.8151746,"y":64.56204061}},{"type":"Feature","geometry":{"type":"Point","coordinates":[39.85336609000008,64.55623178000008]},"properties":{"city":"Северодвинск (Северодвинск городской округ)","cpi_id":537370,"house":"78","id":16983,"name":"Аурум плюс, медицинский центр","post":"164521","street":"Беломорский проспект","x":39.85336609,"y":64.55623178}},{"type":"Feature","geometry":{"type":"Point","coordinates":[39.783354730000035,64.55994882]},"properties":{"city":"Северодвинск (Северодвинск городской округ)","cpi_id":570890,"house":"77","id":18030,"name":"Voxel, центр рентген-диагностики, ООО ВоксельКлиник","post":"164512","street":"Архангельское шоссе","x":39.78335473,"y":64.55994882}},{"type":"Feature","geometry":{"type":"Point","coordinates":[39.75599059000012,64.54758558000006]},"properties":{"city":"Северодвинск (Северодвинск городской округ)","cpi_id":758447,"house":"17","id":23939,"name":"Северодвинская стоматологическая поликлиника, ГАУЗ","post":"164522","street":"Строителей бульвар","x":39.75599059,"y":64.54758558}},{"type":"Feature","geometry":{"type":"Point","coordinates":[39.784329750000104,64.56033454000004]},"properties":{"city":"Северодвинск (Северодвинск городской округ)","cpi_id":834923,"house":"2а к1","id":26475,"name":"Эстетика, стоматологический центр","post":"164512","street":"Серго Орджоникидзе","x":39.78432975,"y":64.56033454}},{"type":"Feature","geometry":{"type":"Point","coordinates":[39.82176298000013,64.55751863000013]},"properties":{"city":"Северодвинск (Северодвинск городской округ)","cpi_id":876838,"house":"17","id":27771,"name":"ОДУС, стоматологический кабинет","post":"164501","street":"Георгия Седова","x":39.82176298,"y":64.55751863}},{"type":"Feature","geometry":{"type":"Point","coordinates":[39.81483481000004,64.54201110000012]},"properties":{"city":"Северодвинск (Северодвинск городской округ)","cpi_id":926756,"house":"55","id":29407,"name":"Здоровье, многопрофильный медицинский центр","post":"164505","street":"Труда проспект","x":39.81483481,"y":64.5420111}},{"type":"Feature","geometry":{"type":"Point","coordinates":[39.82312841000008,64.56517401000008]},"properties":{"city":"Северодвинск (Северодвинск городской округ)","cpi_id":943510,"house":"10","id":29951,"name":"Мона Лиза, ООО, стоматологическая клиника","post":"164501","street":"Ленина проспект","x":39.82312841,"y":64.56517401}},{"type":"Feature","geometry":{"type":"Point","coordinates":[39.80894052000011,64.59924146000003]},"properties":{"city":"Северодвинск (Северодвинск городской округ)","cpi_id":1057893,"house":"16","id":33626,"name":"Северодвинская городская детская клиническая больница, ГБУЗ","post":"164524","street":"Дзержинского","x":39.80894052,"y":64.59924146}},{"type":"Feature","geometry":{"type":"Point","coordinates":[39.79360046000006,64.55608823000006]},"properties":{"city":"Северодвинск (Северодвинск городской округ)","cpi_id":1097445,"house":"13а","id":34833,"name":"Жемчуг плюс, ООО, стоматологический центр","post":"164500","street":"Серго Орджоникидзе","x":39.79360046,"y":64.55608823}},{"type":"Feature","geometry":{"type":"Point","coordinates":[39.81150914000007,64.55602462000014]},"properties":{"city":"Северодвинск (Северодвинск городской округ)","cpi_id":1116565,"house":"31","id":35469,"name":"Мауль dент, стоматологический центр","post":"164504","street":"Капитана Воронина","x":39.81150914,"y":64.55602462}},{"type":"Feature","geometry":{"type":"Point","coordinates":[39.77908533000004,64.55142446000008]},"properties":{"city":"Северодвинск (Северодвинск городской округ)","cpi_id":1308774,"house":"102а","id":41579,"name":"Люкс Денталь, стоматология","post":"164514","street":"Ломоносова","x":39.77908533,"y":64.55142446}},{"type":"Feature","geometry":{"type":"Point","coordinates":[39.8492963600001,64.56292274000003]},"properties":{"city":"Северодвинск (Северодвинск городской округ)","cpi_id":1341832,"house":"54","id":42652,"name":"Нор Дент, стоматологический центр","post":"164521","street":"Беломорский проспект","x":39.84929636,"y":64.56292274}},{"type":"Feature","geometry":{"type":"Point","coordinates":[39.79209607000011,64.56312331000004]},"properties":{"city":"Северодвинск (Северодвинск городской округ)","cpi_id":1359510,"house":"57","id":43214,"name":"Доктор Смайл, стоматологический центр","post":"164500","street":"Первомайская","x":39.79209607,"y":64.56312331}},{"type":"Feature","geometry":{"type":"Point","coordinates":[39.83687749000013,64.56112453000001]},"properties":{"city":"Северодвинск (Северодвинск городской округ)","cpi_id":1489223,"house":"31","id":47344,"name":"Северная Аврора, ООО, клиника имплантации и пародонтологии","post":"164521","street":"Лесная","x":39.83687749,"y":64.56112453}},{"type":"Feature","geometry":{"type":"Point","coordinates":[39.83519019000004,64.57053473000012]},"properties":{"city":"Северодвинск (Северодвинск городской округ)","cpi_id":1566501,"house":"14","id":49873,"name":"Центральная медико-санитарная часть №58 Федерального медико-биологического агентства России","post":"164520","street":"Первомайская","x":39.83519019,"y":64.57053473}},{"type":"Feature","geometry":{"type":"Point","coordinates":[39.81595900000007,64.55544781000006]},"properties":{"city":"Северодвинск (Северодвинск городской округ)","cpi_id":1681546,"house":"49а","id":53473,"name":"Северодвинская городская детская клиническая больница, ГБУЗ","post":"164504","street":"Ломоносова","x":39.815959,"y":64.55544781}},{"type":"Feature","geometry":{"type":"Point","coordinates":[39.7857632700001,64.55238208000003]},"properties":{"city":"Северодвинск (Северодвинск городской округ)","cpi_id":1703759,"house":"100","id":54175,"name":"НОВОдент, стоматологический центр","post":"164512","street":"Ломоносова","x":39.78576327,"y":64.55238208}},{"type":"Feature","geometry":{"type":"Point","coordinates":[39.83243193000005,64.55432815000012]},"properties":{"city":"Северодвинск (Северодвинск городской округ)","cpi_id":1767986,"house":"48","id":56221,"name":"Северодвинская городская больница №1, ГБУЗ","post":"164507","street":"Ленина проспект","x":39.83243193,"y":64.55432815}},{"type":"Feature","geometry":{"type":"Point","coordinates":[39.81551269000011,64.56010154000009]},"properties":{"city":"Северодвинск (Северодвинск городской округ)","cpi_id":1797740,"house":"13","id":57125,"name":"Территория улыбки, стоматологический центр","post":"164504","street":"Гагарина","x":39.81551269,"y":64.56010154}},{"type":"Feature","geometry":{"type":"Point","coordinates":[39.82746074000014,64.55867842000005]},"properties":{"city":"Северодвинск (Северодвинск городской округ)","cpi_id":1851676,"house":"42а","id":58864,"name":"Два врача, кабинет невролога","post":"164501","street":"Ломоносова","x":39.82746074,"y":64.55867842}},{"type":"Feature","geometry":{"type":"Point","coordinates":[39.83762047000007,64.56881016000008]},"properties":{"city":"Северодвинск (Северодвинск городской округ)","cpi_id":1881049,"house":"6","id":59787,"name":"Медицинский центр на Яграх","post":"164520","street":"Пионерская","x":39.83762047,"y":64.56881016}},{"type":"Feature","geometry":{"type":"Point","coordinates":[39.820308630000085,64.59706684000012]},"properties":{"city":"Северодвинск (Северодвинск городской округ)","cpi_id":1948588,"house":"3","id":61832,"name":"Престиж Дент, стоматологический центр","post":"164509","street":"Октябрьская","x":39.82030863,"y":64.59706684}},{"type":"Feature","geometry":{"type":"Point","coordinates":[39.8404006200001,64.55883356000007]},"properties":{"city":"Северодвинск (Северодвинск городской округ)","cpi_id":1978421,"house":"36а","id":62771,"name":"Северодвинская городская больница №1, ГБУЗ","post":"164521","street":"Профсоюзная","x":39.84040062,"y":64.55883356}},{"type":"Feature","geometry":{"type":"Point","coordinates":[39.83204575000008,64.55477786000007]},"properties":{"city":"Северодвинск (Северодвинск городской округ)","cpi_id":1990649,"house":"46","id":63178,"name":"Эскулап","post":"164507","street":"Ленина проспект","x":39.83204575,"y":64.55477786}},{"type":"Feature","geometry":{"type":"Point","coordinates":[39.80565220000013,64.56021433000004]},"properties":{"city":"Северодвинск (Северодвинск городской округ)","cpi_id":2047127,"house":"11","id":65005,"name":"FizioStep, компания по изготовлению индивидуальных анатомических стелек","post":"164500","street":"Карла Маркса","x":39.8056522,"y":64.56021433}},{"type":"Feature","geometry":{"type":"Point","coordinates":[39.80565220000013,64.56021433000004]},"properties":{"city":"Северодвинск (Северодвинск городской округ)","cpi_id":2061138,"house":"11","id":65424,"name":"Dental Smile, стоматологическая клиника","post":"164500","street":"Карла Маркса","x":39.8056522,"y":64.56021433}},{"type":"Feature","geometry":{"type":"Point","coordinates":[39.78208910000011,64.54141400000007]},"properties":{"city":"Северодвинск (Северодвинск городской округ)","cpi_id":2064325,"house":"49 к1","id":65511,"name":"Северодвинская городская клиническая больница №2","post":"164523","street":"Морской проспект","x":39.7820891,"y":64.541414}},{"type":"Feature","geometry":{"type":"Point","coordinates":[39.83775960000004,64.56360207000012]},"properties":{"city":"Северодвинск (Северодвинск городской округ)","cpi_id":2075114,"house":"11а","id":65850,"name":"Кабинет психолога","post":"164520","street":"Профсоюзная","x":39.8377596,"y":64.56360207}},{"type":"Feature","geometry":{"type":"Point","coordinates":[39.81432549000005,64.55483701000007]},"properties":{"city":"Северодвинск (Северодвинск городской округ)","cpi_id":2085538,"house":"2","id":66177,"name":"Стоматологический кабинет","post":"164504","street":"Чехова","x":39.81432549,"y":64.55483701}},{"type":"Feature","geometry":{"type":"Point","coordinates":[39.854261850000114,64.56030903000001]},"properties":{"city":"Северодвинск (Северодвинск городской округ)","cpi_id":2102173,"house":"8а","id":66729,"name":"Стоматологический кабинет Похвалина Е.А. и Похвалиной Е.А.","post":"164521","street":"Комсомольская","x":39.85426185,"y":64.56030903}},{"type":"Feature","geometry":{"type":"Point","coordinates":[39.82745535000007,64.55814970000009]},"properties":{"city":"Северодвинск (Северодвинск городской округ)","cpi_id":2136401,"house":"44","id":67846,"name":"Эскулап","post":"164501","street":"Ломоносова","x":39.82745535,"y":64.5581497}},{"type":"Feature","geometry":{"type":"Point","coordinates":[39.78317658000006,64.54008781000007]},"properties":{"city":"Северодвинск (Северодвинск городской округ)","cpi_id":2169404,"house":"51","id":68910,"name":"Северодвинский родильный дом, ГБУЗ","post":"164523","street":"Морской проспект","x":39.78317658,"y":64.54008781}},{"type":"Feature","geometry":{"type":"Point","coordinates":[39.82508245000011,64.54134909000004]},"properties":{"city":"Северодвинск (Северодвинск городской округ)","cpi_id":2216339,"house":"4","id":70369,"name":"Северодвинская городская детская клиническая больница, ГБУЗ","post":"164505","street":"Победы проспект","x":39.82508245,"y":64.54134909}},{"type":"Feature","geometry":{"type":"Point","coordinates":[39.81824867000006,64.55573118000004]},"properties":{"city":"Северодвинск (Северодвинск городской округ)","cpi_id":2219838,"house":"47","id":70475,"name":"Северодвинская городская больница №1, ГБУЗ","post":"164504","street":"Ломоносова","x":39.81824867,"y":64.55573118}},{"type":"Feature","geometry":{"type":"Point","coordinates":[39.82746074000014,64.55867842000005]},"properties":{"city":"Северодвинск (Северодвинск городской округ)","cpi_id":2253187,"house":"42а","id":71489,"name":"Равновесие, психологический кабинет","post":"164501","street":"Ломоносова","x":39.82746074,"y":64.55867842}},{"type":"Feature","geometry":{"type":"Point","coordinates":[39.8307301600001,64.57466915000009]},"properties":{"city":"Северодвинск (Северодвинск городской округ)","cpi_id":2256191,"house":"48","id":71570,"name":"Fresenius medical care, центр гемодиализа","post":"164520","street":"Архангельское шоссе","x":39.83073016,"y":64.57466915}},{"type":"Feature","geometry":{"type":"Point","coordinates":[39.840364390000076,64.55717601000002]},"properties":{"city":"Северодвинск (Северодвинск городской округ)","cpi_id":2260517,"house":"41","id":71716,"name":"Северодвинская городская детская клиническая больница, ГБУЗ","post":"164521","street":"Комсомольская","x":39.84036439,"y":64.55717601}},{"type":"Feature","geometry":{"type":"Point","coordinates":[39.796001820000065,64.5583836400001]},"properties":{"city":"Северодвинск (Северодвинск городской округ)","cpi_id":2292318,"house":"21","id":72736,"name":"Доктор Плюс, многопрофильный медицинский центр","post":"164500","street":"Карла Маркса","x":39.79600182,"y":64.55838364}},{"type":"Feature","geometry":{"type":"Point","coordinates":[39.78219901000007,64.55126421000006]},"properties":{"city":"Северодвинск (Северодвинск городской округ)","cpi_id":2325457,"house":"102","id":73788,"name":"Северодвинская городская детская клиническая больница, ГБУЗ","post":"164514","street":"Ломоносова","x":39.78219901,"y":64.55126421}},{"type":"Feature","geometry":{"type":"Point","coordinates":[39.80244321000008,64.59117344000006]},"properties":{"city":"Северодвинск (Северодвинск городской округ)","cpi_id":2357978,"house":"5","id":74824,"name":"Стоматологический кабинет","post":"164509","street":"Макаренко","x":39.80244321,"y":64.59117344}},{"type":"Feature","geometry":{"type":"Point","coordinates":[39.82143870000005,64.54210736000002]},"properties":{"city":"Северодвинск (Северодвинск городской округ)","cpi_id":2408580,"house":"13","id":76396,"name":"Северодвинская городская больница №1, ГБУЗ","post":"164505","street":"Юбилейная","x":39.8214387,"y":64.54210736}},{"type":"Feature","geometry":{"type":"Point","coordinates":[39.76807628000014,64.5479780100001]},"properties":{"city":"Северодвинск (Северодвинск городской округ)","cpi_id":2470433,"house":"97","id":78389,"name":"Dentist, стоматологический центр","post":"164522","street":"Ломоносова","x":39.76807628,"y":64.54797801}},{"type":"Feature","geometry":{"type":"Point","coordinates":[39.78756206000001,64.53886679000009]},"properties":{"city":"Северодвинск (Северодвинск городской округ)","cpi_id":2472820,"house":"4 к3","id":78460,"name":"Центральная медико-санитарная часть №58 Федерального медико-биологического агентства России","post":"164502","street":"Кирилкина","x":39.78756206,"y":64.53886679}},{"type":"Feature","geometry":{"type":"Point","coordinates":[39.77002595000009,64.55519843000008]},"properties":{"city":"Северодвинск (Северодвинск городской округ)","cpi_id":2489539,"house":"48","id":78990,"name":"Северодвинская городская клиническая больница №2","post":"164514","street":"Карла Маркса","x":39.77002595,"y":64.55519843}},{"type":"Feature","geometry":{"type":"Point","coordinates":[39.76807628000014,64.5479780100001]},"properties":{"city":"Северодвинск (Северодвинск городской округ)","cpi_id":2501933,"house":"97","id":79372,"name":"Женьшень, аптека, ГУП Фармация","post":"164522","street":"Ломоносова","x":39.76807628,"y":64.54797801}},{"type":"Feature","geometry":{"type":"Point","coordinates":[39.85642633000009,64.56137730000009]},"properties":{"city":"Северодвинск (Северодвинск городской округ)","cpi_id":2534787,"house":"34","id":80475,"name":"Invitro, медицинская компания","post":"164521","street":"Железнодорожная","x":39.85642633,"y":64.5613773}},{"type":"Feature","geometry":{"type":"Point","coordinates":[39.85184279000006,64.56136633000011]},"properties":{"city":"Северодвинск (Северодвинск городской округ)","cpi_id":2544290,"house":"7","id":80803,"name":"Северодвинская городская детская клиническая больница, ГБУЗ","post":"164521","street":"Ломоносова","x":39.85184279,"y":64.56136633}},{"type":"Feature","geometry":{"type":"Point","coordinates":[39.796001820000065,64.5583836400001]},"properties":{"city":"Северодвинск (Северодвинск городской округ)","cpi_id":2597214,"house":"21","id":82554,"name":"Комфорт+, ООО, стоматологический центр","post":"164500","street":"Карла Маркса","x":39.79600182,"y":64.55838364}},{"type":"Feature","geometry":{"type":"Point","coordinates":[39.77652203000012,64.54653905000004]},"properties":{"city":"Северодвинск (Северодвинск городской округ)","cpi_id":2623048,"house":"38","id":83403,"name":"Северодвинская городская клиническая больница №2","post":"164515","street":"Морской проспект","x":39.77652203,"y":64.54653905}},{"type":"Feature","geometry":{"type":"Point","coordinates":[39.77785986000004,64.54719858000004]},"properties":{"city":"Северодвинск (Северодвинск городской округ)","cpi_id":2670020,"house":"36","id":84857,"name":"Снег стоматология, ООО, медицинский центр","post":"164515","street":"Морской проспект","x":39.77785986,"y":64.54719858}},{"type":"Feature","geometry":{"type":"Point","coordinates":[39.80982748000005,64.55672081000006]},"properties":{"city":"Северодвинск (Северодвинск городской округ)","cpi_id":2707744,"house":"34","id":86078,"name":"Северодвинская городская больница №1, ГБУЗ","post":"164504","street":"Капитана Воронина","x":39.80982748,"y":64.55672081}},{"type":"Feature","geometry":{"type":"Point","coordinates":[39.78945374000013,64.56332727000009]},"properties":{"city":"Северодвинск (Северодвинск городской округ)","cpi_id":2861647,"house":"50","id":91156,"name":"Эстетика клиник, ООО, центр стоматологии","post":"164512","street":"Первомайская","x":39.78945374,"y":64.56332727}},{"type":"Feature","geometry":{"type":"Point","coordinates":[39.858298480000016,64.5576779400001]},"properties":{"city":"Северодвинск (Северодвинск городской округ)","cpi_id":2908091,"house":"1","id":92666,"name":"Черные глаза, магазин очков","post":"164507","street":"Южная","x":39.85829848,"y":64.55767794}},{"type":"Feature","geometry":{"type":"Point","coordinates":[39.81599872000006,64.54300238000009]},"properties":{"city":"Северодвинск (Северодвинск городской округ)","cpi_id":2910007,"house":"19а","id":92735,"name":"Сгком, ООО, Медицинский центр","post":"164505","street":"Юбилейная","x":39.81599872,"y":64.54300238}},{"type":"Feature","geometry":{"type":"Point","coordinates":[39.81782803000005,64.56129123000012]},"properties":{"city":"Северодвинск (Северодвинск городской округ)","cpi_id":2914266,"house":"10","id":92846,"name":"Мастерская улыбки, стоматологический кабинет","post":"164501","street":"Георгия Седова","x":39.81782803,"y":64.56129123}},{"type":"Feature","geometry":{"type":"Point","coordinates":[39.83284632000004,64.56500245000008]},"properties":{"city":"Северодвинск (Северодвинск городской округ)","cpi_id":2960158,"house":"35Б","id":94281,"name":"Центр психолого-педагогической, медицинской и социальной помощи, МБОУ","post":"164520","street":"Советская","x":39.83284632,"y":64.56500245}},{"type":"Feature","geometry":{"type":"Point","coordinates":[39.77367884000006,64.54833029000014]},"properties":{"city":"Северодвинск (Северодвинск городской округ)","cpi_id":2980848,"house":"28","id":94975,"name":"Северодвинская стоматологическая поликлиника, ГАУЗ","post":"164515","street":"Морской проспект","x":39.77367884,"y":64.54833029}},{"type":"Feature","geometry":{"type":"Point","coordinates":[39.79122872000008,64.55241917000006]},"properties":{"city":"Северодвинск (Северодвинск городской округ)","cpi_id":3058648,"house":"90","id":97463,"name":"Гемотест, медицинская лаборатория","post":"164512","street":"Ломоносова","x":39.79122872,"y":64.55241917}},{"type":"Feature","geometry":{"type":"Point","coordinates":[39.798412940000105,64.59494348000007]},"properties":{"city":"Северодвинск (Северодвинск городской округ)","cpi_id":3066053,"house":"3","id":97694,"name":"Яркие дети, детская студия развития","post":"164509","street":"Дзержинского","x":39.79841294,"y":64.59494348}},{"type":"Feature","geometry":{"type":"Point","coordinates":[39.82049169000007,64.56187931000005]},"properties":{"city":"Северодвинск (Северодвинск городской округ)","cpi_id":3170695,"house":"5","id":101122,"name":"Дента, стоматологический центр","post":"164501","street":"Плюснина","x":39.82049169,"y":64.56187931}},{"type":"Feature","geometry":{"type":"Point","coordinates":[39.825723150000115,64.56370996000001]},"properties":{"city":"Северодвинск (Северодвинск городской округ)","cpi_id":3180933,"house":"13","id":101451,"name":"Северодвинская городская детская клиническая больница, ГБУЗ","post":"164501","street":"Ленина проспект","x":39.82572315,"y":64.56370996}},{"type":"Feature","geometry":{"type":"Point","coordinates":[39.83762047000007,64.56881016000008]},"properties":{"city":"Северодвинск (Северодвинск городской округ)","cpi_id":3215790,"house":"6","id":102527,"name":"Риал, ООО, медицинский центр, г. Северодвинск","post":"164520","street":"Пионерская","x":39.83762047,"y":64.56881016}},{"type":"Feature","geometry":{"type":"Point","coordinates":[39.81364611000003,64.55939439000005]},"properties":{"city":"Северодвинск (Северодвинск городской округ)","cpi_id":73307,"house":"62","id":104750,"name":"Дента, стоматологический центр","post":"164504","street":"Индустриальная","x":39.81364611,"y":64.55939439}},{"type":"Feature","geometry":{"type":"Point","coordinates":[39.82746074000014,64.55867842000005]},"properties":{"city":"Северодвинск (Северодвинск городской округ)","cpi_id":312726,"house":"42а","id":108038,"name":"Пульс, многопрофильная клиника","post":"164501","street":"Ломоносова","x":39.82746074,"y":64.55867842}},{"type":"Feature","geometry":{"type":"Point","coordinates":[39.799797270000106,64.53913977000005]},"properties":{"city":"Северодвинск (Северодвинск городской округ)","cpi_id":753188,"house":"10","id":113605,"name":"Элит-дент, центр косметологии и стоматологии","post":"164502","street":"Лебедева","x":39.79979727,"y":64.53913977}},{"type":"Feature","geometry":{"type":"Point","coordinates":[39.813527980000075,64.56176532000009]},"properties":{"city":"Северодвинск (Северодвинск городской округ)","cpi_id":956440,"house":"9","id":116275,"name":"Северодвинская городская детская клиническая больница, ГБУЗ","post":"164501","street":"Гагарина","x":39.81352798,"y":64.56176532}},{"type":"Feature","geometry":{"type":"Point","coordinates":[39.780552820000025,64.54074919000006]},"properties":{"city":"Северодвинск (Северодвинск городской округ)","cpi_id":960024,"house":"53","id":116380,"name":"Здоровье, многопрофильный медицинский центр","post":"164523","street":"Морской проспект","x":39.78055282,"y":64.54074919}},{"type":"Feature","geometry":{"type":"Point","coordinates":[39.8333562600001,64.56295702000003]},"properties":{"city":"Северодвинск (Северодвинск городской округ)","cpi_id":1179092,"house":"34а","id":119233,"name":"Северодвинский центр томографии","post":"164520","street":"Индустриальная","x":39.83335626,"y":64.56295702}},{"type":"Feature","geometry":{"type":"Point","coordinates":[39.818875600000105,64.59132641000011]},"properties":{"city":"Северодвинск (Северодвинск городской округ)","cpi_id":1345759,"house":"16","id":121416,"name":"Медико-санитарная часть №2, Центральная медико-санитарная часть №58 Федерального медико-биологического агентства России","post":"164509","street":"Машиностроителей проезд","x":39.8188756,"y":64.59132641}},{"type":"Feature","geometry":{"type":"Point","coordinates":[39.842297780000095,64.55846198000012]},"properties":{"city":"Северодвинск (Северодвинск городской округ)","cpi_id":1424831,"house":"20","id":122352,"name":"Самсон, медицинский центр","post":"164521","street":"Комсомольская","x":39.84229778,"y":64.55846198}},{"type":"Feature","geometry":{"type":"Point","coordinates":[39.79013414000012,64.55834537000004]},"properties":{"city":"Северодвинск (Северодвинск городской округ)","cpi_id":1670314,"house":"30","id":125745,"name":"Hestia psychology, психологическая студия","post":"164500","street":"Карла Маркса","x":39.79013414,"y":64.55834537}},{"type":"Feature","geometry":{"type":"Point","coordinates":[39.807576160000075,64.59864481000002]},"properties":{"city":"Северодвинск (Северодвинск городской округ)","cpi_id":1719152,"house":"12","id":126371,"name":"Северодвинская стоматологическая поликлиника","post":"164509","street":"Дзержинского","x":39.80757616,"y":64.59864481}},{"type":"Feature","geometry":{"type":"Point","coordinates":[39.80992048000011,64.56144317000008]},"properties":{"city":"Северодвинск (Северодвинск городской округ)","cpi_id":1799000,"house":"6","id":127352,"name":"Happy kids, детская клиника","post":"164504","street":"Карла Маркса","x":39.80992048,"y":64.56144317}},{"type":"Feature","geometry":{"type":"Point","coordinates":[39.77586647000012,64.55040270000006]},"properties":{"city":"Северодвинск (Северодвинск городской округ)","cpi_id":1818287,"house":"104","id":127671,"name":"Стоматологический центр","post":"164514","street":"Ломоносова","x":39.77586647,"y":64.5504027}},{"type":"Feature","geometry":{"type":"Point","coordinates":[39.81944555000014,64.55710221000004]},"properties":{"city":"Северодвинск (Северодвинск городской округ)","cpi_id":2031415,"house":"54","id":130452,"name":"Белая роза, диагностический центр женского здоровья","post":"164504","street":"Ломоносова","x":39.81944555,"y":64.55710221}},{"type":"Feature","geometry":{"type":"Point","coordinates":[39.8323808100001,64.5573304000001]},"properties":{"city":"Северодвинск (Северодвинск городской округ)","cpi_id":2184535,"house":"34а","id":132355,"name":"Ваш врач, медицинский центр","post":"164507","street":"Комсомольская","x":39.83238081,"y":64.5573304}},{"type":"Feature","geometry":{"type":"Point","coordinates":[39.780552820000025,64.54074919000006]},"properties":{"city":"Северодвинск (Северодвинск городской округ)","cpi_id":2647371,"house":"53","id":138449,"name":"Дэма, медицинский центр","post":"164523","street":"Морской проспект","x":39.78055282,"y":64.54074919}},{"type":"Feature","geometry":{"type":"Point","coordinates":[39.81607325000008,64.60096047000008]},"properties":{"city":"Северодвинск (Северодвинск городской округ)","cpi_id":2727136,"house":"42а","id":139511,"name":"Медицинский центр на Яграх","post":"164524","street":"Мира","x":39.81607325,"y":64.60096047}},{"type":"Feature","geometry":{"type":"Point","coordinates":[39.797784390000054,64.59896958000009]},"properties":{"city":"Северодвинск (Северодвинск городской округ)","cpi_id":2749161,"house":"12","id":139789,"name":"Стоматологический кабинет","post":"164524","street":"Приморский бульвар","x":39.79778439,"y":64.59896958}},{"type":"Feature","geometry":{"type":"Point","coordinates":[39.78192704000005,64.5501286700001]},"properties":{"city":"Северодвинск (Северодвинск городской округ)","cpi_id":2849448,"house":"85 к1","id":141070,"name":"Invitro, медицинская компания","post":"164515","street":"Ломоносова","x":39.78192704,"y":64.55012867}},{"type":"Feature","geometry":{"type":"Point","coordinates":[39.77652203000012,64.54653905000004]},"properties":{"city":"Северодвинск (Северодвинск городской округ)","cpi_id":2943908,"house":"38","id":142287,"name":"Люкс Денталь, стоматология","post":"164515","street":"Морской проспект","x":39.77652203,"y":64.54653905}},{"type":"Feature","geometry":{"type":"Point","coordinates":[39.85341376000009,64.56510127000011]},"properties":{"city":"Северодвинск (Северодвинск городской округ)","cpi_id":113859,"house":"22","id":147693,"name":"Гемотест, лаборатория","post":"164520","street":"Железнодорожная","x":39.85341376,"y":64.56510127}},{"type":"Feature","geometry":{"type":"Point","coordinates":[39.780552820000025,64.54074919000006]},"properties":{"city":"Северодвинск (Северодвинск городской округ)","cpi_id":245270,"house":"53","id":149353,"name":"Элит дента, центр семейной стоматологии","post":"164523","street":"Морской проспект","x":39.78055282,"y":64.54074919}},{"type":"Feature","geometry":{"type":"Point","coordinates":[39.807576160000075,64.59864481000002]},"properties":{"city":"Северодвинск (Северодвинск городской округ)","cpi_id":345653,"house":"12","id":150791,"name":"Северодвинская городская клиническая больница №2","post":"164509","street":"Дзержинского","x":39.80757616,"y":64.59864481}},{"type":"Feature","geometry":{"type":"Point","coordinates":[39.80920398000007,64.56021275000012]},"properties":{"city":"Северодвинск (Северодвинск городской округ)","cpi_id":579874,"house":"7","id":153930,"name":"Аурум плюс, медицинский центр","post":"164504","street":"Карла Маркса","x":39.80920398,"y":64.56021275}},{"type":"Feature","geometry":{"type":"Point","coordinates":[39.7857632700001,64.55238208000003]},"properties":{"city":"Северодвинск (Северодвинск городской округ)","cpi_id":697809,"house":"100","id":155602,"name":"Доктор Волос, центр диагностики и лечения волос","post":"164512","street":"Ломоносова","x":39.78576327,"y":64.55238208}},{"type":"Feature","geometry":{"type":"Point","coordinates":[39.782501510000046,64.53811705000012]},"properties":{"city":"Северодвинск (Северодвинск городской округ)","cpi_id":698612,"house":"67","id":155620,"name":"Центр гигиены и эпидемиологии в Архангельской области, ФБУЗ","post":"164523","street":"Морской проспект","x":39.78250151,"y":64.53811705}},{"type":"Feature","geometry":{"type":"Point","coordinates":[39.78482939000008,64.54142582000007]},"properties":{"city":"Северодвинск (Северодвинск городской округ)","cpi_id":744173,"house":"49","id":156197,"name":"Северодвинский госпиталь для пациентов с COVID-19, ГБУЗ Северодвинская горбольница №2 СМП","post":"164523","street":"Морской проспект","x":39.78482939,"y":64.54142582}},{"type":"Feature","geometry":{"type":"Point","coordinates":[39.764983090000044,64.5485239000001]},"properties":{"city":"Северодвинск (Северодвинск городской округ)","cpi_id":774690,"house":"116","id":156685,"name":"Эдем, стоматологический центр","post":"164522","street":"Ломоносова","x":39.76498309,"y":64.5485239}},{"type":"Feature","geometry":{"type":"Point","coordinates":[39.842297780000095,64.55846198000012]},"properties":{"city":"Северодвинск (Северодвинск городской округ)","cpi_id":1256464,"house":"20","id":162865,"name":"Семейная стоматология","post":"164521","street":"Комсомольская","x":39.84229778,"y":64.55846198}},{"type":"Feature","geometry":{"type":"Point","coordinates":[39.7856851000001,64.55044162000009]},"properties":{"city":"Северодвинск (Северодвинск городской округ)","cpi_id":1276157,"house":"81","id":163043,"name":"Черные глаза, магазин очков","post":"164500","street":"Ломоносова","x":39.7856851,"y":64.55044162}},{"type":"Feature","geometry":{"type":"Point","coordinates":[39.78482939000008,64.54142582000007]},"properties":{"city":"Северодвинск (Северодвинск городской округ)","cpi_id":1540406,"house":"49","id":166530,"name":"Северодвинская городская клиническая больница №2","post":"164523","street":"Морской проспект","x":39.78482939,"y":64.54142582}},{"type":"Feature","geometry":{"type":"Point","coordinates":[39.80992048000011,64.56144317000008]},"properties":{"city":"Северодвинск (Северодвинск городской округ)","cpi_id":1652884,"house":"6","id":167947,"name":"Лорцентр, медицинский центр","post":"164504","street":"Карла Маркса","x":39.80992048,"y":64.56144317}},{"type":"Feature","geometry":{"type":"Point","coordinates":[39.78621155000012,64.56315838000006]},"properties":{"city":"Северодвинск (Северодвинск городской округ)","cpi_id":1939544,"house":"60","id":171726,"name":"Эстетика клиник, ООО, центр стоматологии","post":"164512","street":"Первомайская","x":39.78621155,"y":64.56315838}},{"type":"Feature","geometry":{"type":"Point","coordinates":[39.780552820000025,64.54074919000006]},"properties":{"city":"Северодвинск (Северодвинск городской округ)","cpi_id":1989641,"house":"53","id":172441,"name":"Северные медицинские технологии, ООО, центр микрохирургии глаза","post":"164523","street":"Морской проспект","x":39.78055282,"y":64.54074919}},{"type":"Feature","geometry":{"type":"Point","coordinates":[39.854261850000114,64.56030903000001]},"properties":{"city":"Северодвинск (Северодвинск городской округ)","cpi_id":1994424,"house":"8а","id":172573,"name":"Стоматологический кабинет","post":"164521","street":"Комсомольская","x":39.85426185,"y":64.56030903}},{"type":"Feature","geometry":{"type":"Point","coordinates":[39.81551269000011,64.56010154000009]},"properties":{"city":"Северодвинск (Северодвинск городской округ)","cpi_id":2159020,"house":"13","id":174625,"name":"Жемчуг, стоматологический кабинет","post":"164504","street":"Гагарина","x":39.81551269,"y":64.56010154}},{"type":"Feature","geometry":{"type":"Point","coordinates":[39.77002595000009,64.55519843000008]},"properties":{"city":"Северодвинск (Северодвинск городской округ)","cpi_id":2264961,"house":"48","id":176063,"name":"Ясно-понятно, логопедический кабинет","post":"164514","street":"Карла Маркса","x":39.77002595,"y":64.55519843}},{"type":"Feature","geometry":{"type":"Point","coordinates":[39.8444030100001,64.56979193000008]},"properties":{"city":"Северодвинск (Северодвинск городской округ)","cpi_id":2292127,"house":"13","id":176466,"name":"Эстетика, стоматологический центр","post":"164520","street":"Беломорский проспект","x":39.84440301,"y":64.56979193}},{"type":"Feature","geometry":{"type":"Point","coordinates":[39.78685412000012,64.53758820000007]},"properties":{"city":"Северодвинск (Северодвинск городской округ)","cpi_id":2363329,"house":"4","id":177328,"name":"Центральная медико-санитарная часть №58 Федерального медико-биологического агентства России","post":"164502","street":"Кирилкина","x":39.78685412,"y":64.5375882}},{"type":"Feature","geometry":{"type":"Point","coordinates":[39.81944555000014,64.55710221000004]},"properties":{"city":"Северодвинск (Северодвинск городской округ)","cpi_id":2429033,"house":"54","id":178273,"name":"Северодвинский родильный дом, ГБУЗ","post":"164504","street":"Ломоносова","x":39.81944555,"y":64.55710221}},{"type":"Feature","geometry":{"type":"Point","coordinates":[39.85642633000009,64.56137730000009]},"properties":{"city":"Северодвинск (Северодвинск городской округ)","cpi_id":2495402,"house":"34","id":178997,"name":"Беломорская Медицинская Компания, ООО, стоматологический центр","post":"164521","street":"Железнодорожная","x":39.85642633,"y":64.5613773}},{"type":"Feature","geometry":{"type":"Point","coordinates":[39.82300138000013,64.55481990000007]},"properties":{"city":"Северодвинск (Северодвинск городской округ)","cpi_id":2570606,"house":"20","id":179989,"name":"Северодвинская городская больница №1, ГБУЗ","post":"164504","street":"Георгия Седова","x":39.82300138,"y":64.5548199}},{"type":"Feature","geometry":{"type":"Point","coordinates":[39.810281900000085,64.56426123000003]},"properties":{"city":"Северодвинск (Северодвинск городской округ)","cpi_id":2660008,"house":"44","id":181129,"name":"Поликлиника, 1469 Военно-морской клинический госпиталь Министерства обороны РФ","post":"164501","street":"Торцева","x":39.8102819,"y":64.56426123}},{"type":"Feature","geometry":{"type":"Point","coordinates":[39.79992352000007,64.55563634000002]},"properties":{"city":"Северодвинск (Северодвинск городской округ)","cpi_id":2885901,"house":"40","id":184220,"name":"Витаника, стоматология","post":"164500","street":"Труда проспект","x":39.79992352,"y":64.55563634}},{"type":"Feature","geometry":{"type":"Point","coordinates":[39.815883980000116,64.55633691000004]},"properties":{"city":"Северодвинск (Северодвинск городской округ)","cpi_id":2905535,"house":"56","id":184420,"name":"Шаг, ортопедический салон","post":"164504","street":"Ломоносова","x":39.81588398,"y":64.55633691}},{"type":"Feature","geometry":{"type":"Point","coordinates":[39.77653173000008,64.54745200000005]},"properties":{"city":"Северодвинск (Северодвинск городской округ)","cpi_id":3030183,"house":"34","id":186023,"name":"Северодвинская городская детская клиническая больница, ГБУЗ","post":"164515","street":"Морской проспект","x":39.77653173,"y":64.547452}},{"type":"Feature","geometry":{"type":"Point","coordinates":[39.804812170000105,64.57076089000003]},"properties":{"city":"Северодвинск (Северодвинск городской округ)","cpi_id":3110451,"house":"70","id":187163,"name":"Центральная медико-санитарная часть №58 Федерального медико-биологического агентства России","post":"","street":"Архангельское шоссе","x":39.80481217,"y":64.57076089}},{"type":"Feature","geometry":{"type":"Point","coordinates":[39.83972120000006,64.56641062000006]},"properties":{"city":"Северодвинск (Северодвинск городской округ)","cpi_id":3236581,"house":"25","id":188745,"name":"Самсон, медицинский центр","post":"164520","street":"Советская","x":39.8397212,"y":64.56641062}},{"type":"Feature","geometry":{"type":"Point","coordinates":[39.81928463000007,64.55445894000005]},"properties":{"city":"Северодвинск (Северодвинск городской округ)","cpi_id":652952,"house":"49а к1","id":190056,"name":"Северодвинская городская детская клиническая больница, ГБУЗ","post":"164504","street":"Ломоносова","x":39.81928463,"y":64.55445894}},{"type":"Feature","geometry":{"type":"Point","coordinates":[39.82025399000008,64.54047738000006]},"properties":{"city":"Северодвинск (Северодвинск городской округ)","cpi_id":2784504,"house":"14","id":193331,"name":"Здоровье, многопрофильный медицинский центр","post":"164505","street":"Победы проспект","x":39.82025399,"y":64.54047738}},{"type":"Feature","geometry":{"type":"Point","coordinates":[39.81652887000008,64.55486737000007]},"properties":{"city":"Северодвинск (Северодвинск городской округ)","cpi_id":3038572,"house":"49","id":193677,"name":"Северодвинская городская детская клиническая больница, ГБУЗ","post":"164504","street":"Ломоносова","x":39.81652887,"y":64.55486737}}],"type":"FeatureCollection"}