{"features":[{"type":"Feature","geometry":{"type":"Point","coordinates":[40.5313664700001,64.53250401000014]},"properties":{"city":"Архангельск","cpi_id":15347,"house":"12","id":497,"name":"Зубной лекарь, стоматологическая клиника, ООО Архком","post":"","street":"Троицкий проспект","x":40.53136647,"y":64.53250401}},{"type":"Feature","geometry":{"type":"Point","coordinates":[40.53248396000004,64.54532494000009]},"properties":{"city":"Архангельск","cpi_id":44992,"house":"115","id":1449,"name":"Arctic Smile, клиника эстетической стоматологии","post":"163000","street":"Советских Космонавтов проспект","x":40.53248396,"y":64.54532494}},{"type":"Feature","geometry":{"type":"Point","coordinates":[40.557177920000065,64.55612588000008]},"properties":{"city":"Архангельск","cpi_id":60521,"house":"45","id":1940,"name":"Альтаир, ООО, стоматологическая клиника","post":"163045","street":"Гагарина","x":40.55717792,"y":64.55612588}},{"type":"Feature","geometry":{"type":"Point","coordinates":[40.58983893000009,64.5943279200001]},"properties":{"city":"Архангельск","cpi_id":62260,"house":"5 к1","id":1986,"name":"Людмила, стоматологический кабинет","post":"163059","street":"Химиков","x":40.58983893,"y":64.59432792}},{"type":"Feature","geometry":{"type":"Point","coordinates":[40.543659950000084,64.55640586000007]},"properties":{"city":"Архангельск","cpi_id":94262,"house":"54","id":3012,"name":"РЭП 10, ООО, медицинский кабинет предрейсового и послерейсового осмотра","post":"163072","street":"Комсомольская","x":40.54365995,"y":64.55640586}},{"type":"Feature","geometry":{"type":"Point","coordinates":[40.558471570000094,64.53642225000004]},"properties":{"city":"Архангельск","cpi_id":132952,"house":"9 к3","id":4236,"name":"CMD, медицинский центр","post":"163002","street":"Обводный канал проспект","x":40.55847157,"y":64.53642225}},{"type":"Feature","geometry":{"type":"Point","coordinates":[40.53962463000015,64.53474923000007]},"properties":{"city":"Архангельск","cpi_id":145411,"house":"25","id":4608,"name":"Стоматология 1, ООО","post":"163046","street":"Выучейского","x":40.53962463,"y":64.53474923}},{"type":"Feature","geometry":{"type":"Point","coordinates":[40.55692168000013,64.53560131000012]},"properties":{"city":"Архангельск","cpi_id":205163,"house":"9","id":6479,"name":"Центр зрения","post":"163002","street":"Обводный канал проспект","x":40.55692168,"y":64.53560131}},{"type":"Feature","geometry":{"type":"Point","coordinates":[40.55623460000005,64.53936856000007]},"properties":{"city":"Архангельск","cpi_id":261914,"house":"1/1","id":8239,"name":"Гармония, центр психологической помощи и медиации","post":"163060","street":"Котласская","x":40.5562346,"y":64.53936856}},{"type":"Feature","geometry":{"type":"Point","coordinates":[40.5451678600001,64.54580745000007]},"properties":{"city":"Архангельск","cpi_id":265979,"house":"87 к2","id":8389,"name":"Центр ЭКО, клиника репродуктивного здоровья","post":"163046","street":"Воскресенская","x":40.54516786,"y":64.54580745}},{"type":"Feature","geometry":{"type":"Point","coordinates":[40.54355233000016,64.56113154000009]},"properties":{"city":"Архангельск","cpi_id":308918,"house":"14","id":9751,"name":"Профи-Стом, ООО, стоматологический кабинет","post":"163045","street":"Гагарина","x":40.54355233,"y":64.56113154}},{"type":"Feature","geometry":{"type":"Point","coordinates":[40.53622513000007,64.53694562000007]},"properties":{"city":"Архангельск","cpi_id":317339,"house":"87","id":9990,"name":"Денталь, стоматологический центр","post":"163046","street":"Новгородский проспект","x":40.53622513,"y":64.53694562}},{"type":"Feature","geometry":{"type":"Point","coordinates":[40.52230820000005,64.53253350000006]},"properties":{"city":"Архангельск","cpi_id":338186,"house":"71 к1","id":10661,"name":"Voxel","post":"163069","street":"Северной Двины набережная","x":40.5223082,"y":64.5325335}},{"type":"Feature","geometry":{"type":"Point","coordinates":[40.669355950000146,64.5100001400001]},"properties":{"city":"Архангельск","cpi_id":357429,"house":"7","id":11278,"name":"Ваш стоматолог, ООО, стоматологическая клиника","post":"163062","street":"Никитова","x":40.66935595,"y":64.51000014}},{"type":"Feature","geometry":{"type":"Point","coordinates":[40.33535447000008,64.53283574000011]},"properties":{"city":"Архангельск","cpi_id":360050,"house":"10 к1","id":11349,"name":"Дио-мед, ООО, стоматологический кабинет","post":"163044","street":"Красина","x":40.33535447,"y":64.53283574}},{"type":"Feature","geometry":{"type":"Point","coordinates":[40.51252351000003,64.54421673000007]},"properties":{"city":"Архангельск","cpi_id":361072,"house":"95","id":11386,"name":"Архангельская клиническая психиатрическая больница, ГБУЗ","post":"163000","street":"Северной Двины набережная","x":40.51252351,"y":64.54421673}},{"type":"Feature","geometry":{"type":"Point","coordinates":[40.512849570000135,64.54483915000003]},"properties":{"city":"Архангельск","cpi_id":362244,"house":"96","id":11419,"name":"Архангельская городская детская клиническая больница, ГБУЗ","post":"163000","street":"Северной Двины набережная","x":40.51284957,"y":64.54483915}},{"type":"Feature","geometry":{"type":"Point","coordinates":[40.54529714000008,64.56277758000002]},"properties":{"city":"Архангельск","cpi_id":375737,"house":"292","id":11853,"name":"Архангельская областная клиническая больница, ГБУЗ","post":"163045","street":"Ломоносова проспект","x":40.54529714,"y":64.56277758}},{"type":"Feature","geometry":{"type":"Point","coordinates":[40.58304254000009,64.51136449000009]},"properties":{"city":"Архангельск","cpi_id":392628,"house":"34 ст1","id":12401,"name":"Эко строй комплекс, гипермаркет товаров для дома, отдыха и уюта","post":"163035","street":"Дежнёвцев","x":40.58304254,"y":64.51136449}},{"type":"Feature","geometry":{"type":"Point","coordinates":[40.567029310000116,64.53779532000003]},"properties":{"city":"Архангельск","cpi_id":400109,"house":"47","id":12621,"name":"ЕвроДент, клиника нейромышечной стоматологии","post":"163060","street":"Урицкого","x":40.56702931,"y":64.53779532}},{"type":"Feature","geometry":{"type":"Point","coordinates":[40.567029310000116,64.53779532000003]},"properties":{"city":"Архангельск","cpi_id":401042,"house":"47","id":12659,"name":"Омега, психологический центр","post":"163060","street":"Урицкого","x":40.56702931,"y":64.53779532}},{"type":"Feature","geometry":{"type":"Point","coordinates":[40.53697477000009,64.53562785000007]},"properties":{"city":"Архангельск","cpi_id":403485,"house":"30","id":12740,"name":"Кабинет психолога","post":"163069","street":"Серафимовича","x":40.53697477,"y":64.53562785}},{"type":"Feature","geometry":{"type":"Point","coordinates":[40.5402581500001,64.5439016500001]},"properties":{"city":"Архангельск","cpi_id":436746,"house":"81","id":13769,"name":"Шаг, ортопедический салон","post":"163046","street":"Воскресенская","x":40.54025815,"y":64.54390165}},{"type":"Feature","geometry":{"type":"Point","coordinates":[40.52038002000013,64.55274569000005]},"properties":{"city":"Архангельск","cpi_id":451931,"house":"99","id":14240,"name":"Белая роза, МБУ, диагностический центр женского здоровья","post":"163000","street":"Троицкий проспект","x":40.52038002,"y":64.55274569}},{"type":"Feature","geometry":{"type":"Point","coordinates":[40.53962463000015,64.53474923000007]},"properties":{"city":"Архангельск","cpi_id":478161,"house":"25","id":15098,"name":"Персона, медицинская клиника","post":"163046","street":"Выучейского","x":40.53962463,"y":64.53474923}},{"type":"Feature","geometry":{"type":"Point","coordinates":[40.540315250000084,64.53037387000009]},"properties":{"city":"Архангельск","cpi_id":510534,"house":"32","id":16099,"name":"White, стоматологическая клиника","post":"163069","street":"Северной Двины набережная","x":40.54031525,"y":64.53037387}},{"type":"Feature","geometry":{"type":"Point","coordinates":[40.55863997000012,64.54905413000009]},"properties":{"city":"Архангельск","cpi_id":533461,"house":"17 к2","id":16852,"name":"Детский доктор, ООО, медицинский центр","post":"163071","street":"Тимме","x":40.55863997,"y":64.54905413}},{"type":"Feature","geometry":{"type":"Point","coordinates":[40.55526881000008,64.52786963000004]},"properties":{"city":"Архангельск","cpi_id":535228,"house":"1","id":16908,"name":"Рива, медицинский центр","post":"163002","street":"Урицкого","x":40.55526881,"y":64.52786963}},{"type":"Feature","geometry":{"type":"Point","coordinates":[40.52304580000008,64.57033280000013]},"properties":{"city":"Архангельск","cpi_id":544971,"house":"5","id":17205,"name":"Медико-диагностический центр","post":"163020","street":"Советская","x":40.5230458,"y":64.5703328}},{"type":"Feature","geometry":{"type":"Point","coordinates":[40.52591931000011,64.55802709000004]},"properties":{"city":"Архангельск","cpi_id":563672,"house":"164 к1","id":17777,"name":"Центр гигиены и эпидемиологии в Архангельской области, ФБУЗ","post":"163001","street":"Троицкий проспект","x":40.52591931,"y":64.55802709}},{"type":"Feature","geometry":{"type":"Point","coordinates":[40.53150902000011,64.55853989000008]},"properties":{"city":"Архангельск","cpi_id":567799,"house":"258/1","id":17932,"name":"Эстет, стоматологический центр","post":"163001","street":"Ломоносова проспект","x":40.53150902,"y":64.55853989}},{"type":"Feature","geometry":{"type":"Point","coordinates":[40.55604760000012,64.53297257000008]},"properties":{"city":"Архангельск","cpi_id":590315,"house":"28","id":18661,"name":"Архангельский клинический противотуберкулезный диспансер, ГБУЗ","post":"163002","street":"Новгородский проспект","x":40.5560476,"y":64.53297257}},{"type":"Feature","geometry":{"type":"Point","coordinates":[40.65228955000006,64.45779170000003]},"properties":{"city":"Архангельск","cpi_id":591752,"house":"1","id":18712,"name":"Александрия, стоматологическая клиника","post":"163038","street":"Штурманская","x":40.65228955,"y":64.4577917}},{"type":"Feature","geometry":{"type":"Point","coordinates":[40.51748121000007,64.55265609000008]},"properties":{"city":"Архангельск","cpi_id":607286,"house":"4 к1","id":19222,"name":"Helix, лабораторная служба, ООО Профессионал","post":"163000","street":"Гайдара","x":40.51748121,"y":64.55265609}},{"type":"Feature","geometry":{"type":"Point","coordinates":[40.66518400000014,64.51777174000011]},"properties":{"city":"Архангельск","cpi_id":632322,"house":"50","id":19965,"name":"Гемотест, медицинская лаборатория","post":"163015","street":"Дачная","x":40.665184,"y":64.51777174}},{"type":"Feature","geometry":{"type":"Point","coordinates":[40.52667582000011,64.53086540000001]},"properties":{"city":"Архангельск","cpi_id":639608,"house":"55","id":20189,"name":"Кабинет психолога","post":"163069","street":"Северной Двины набережная","x":40.52667582,"y":64.5308654}},{"type":"Feature","geometry":{"type":"Point","coordinates":[40.53962463000015,64.53474923000007]},"properties":{"city":"Архангельск","cpi_id":654078,"house":"25","id":20615,"name":"Дантист, стоматологический кабинет","post":"163046","street":"Выучейского","x":40.53962463,"y":64.53474923}},{"type":"Feature","geometry":{"type":"Point","coordinates":[40.568830280000114,64.53769798000015]},"properties":{"city":"Архангельск","cpi_id":691113,"house":"54 к2","id":21794,"name":"Optimus Medicus, медицинский центр","post":"163060","street":"Урицкого","x":40.56883028,"y":64.53769798}},{"type":"Feature","geometry":{"type":"Point","coordinates":[40.52230820000005,64.53253350000006]},"properties":{"city":"Архангельск","cpi_id":697397,"house":"71 к1","id":21994,"name":"Кабинет психолога","post":"163069","street":"Северной Двины набережная","x":40.5223082,"y":64.5325335}},{"type":"Feature","geometry":{"type":"Point","coordinates":[40.55526881000008,64.52786963000004]},"properties":{"city":"Архангельск","cpi_id":733148,"house":"1","id":23144,"name":"Smart Medica, медицинский центр","post":"163002","street":"Урицкого","x":40.55526881,"y":64.52786963}},{"type":"Feature","geometry":{"type":"Point","coordinates":[40.602011970000085,64.49368278000006]},"properties":{"city":"Архангельск","cpi_id":746718,"house":"3","id":23554,"name":"Архангельская городская клиническая больница №4, ГБУЗ","post":"163035","street":"Рейдовая","x":40.60201197,"y":64.49368278}},{"type":"Feature","geometry":{"type":"Point","coordinates":[40.52681888000008,64.5389113200001]},"properties":{"city":"Архангельск","cpi_id":771615,"house":"22","id":24376,"name":"Айва, ООО, студия семейной стоматологии","post":"163046","street":"Карла Либкнехта","x":40.52681888,"y":64.53891132}},{"type":"Feature","geometry":{"type":"Point","coordinates":[40.541756420000155,64.52964085000008]},"properties":{"city":"Архангельск","cpi_id":846105,"house":"27","id":26824,"name":"Шаг, ортопедический салон","post":"163069","street":"Северной Двины набережная","x":40.54175642,"y":64.52964085}},{"type":"Feature","geometry":{"type":"Point","coordinates":[40.54303761000013,64.56021857000009]},"properties":{"city":"Архангельск","cpi_id":848862,"house":"13","id":26907,"name":"Архангельская областная клиническая больница, ГБУЗ","post":"163045","street":"Самойло","x":40.54303761,"y":64.56021857}},{"type":"Feature","geometry":{"type":"Point","coordinates":[40.51402381000005,64.57274963]},"properties":{"city":"Архангельск","cpi_id":862740,"house":"2","id":27349,"name":"Северный медицинский клинический центр им. Н.А. Семашко, ФГБУЗ","post":"163020","street":"Адмиралтейская","x":40.51402381,"y":64.57274963}},{"type":"Feature","geometry":{"type":"Point","coordinates":[40.51214461000012,64.58618489000011]},"properties":{"city":"Архангельск","cpi_id":873295,"house":"65","id":27665,"name":"Стоматология без боли, ООО","post":"163013","street":"Советская","x":40.51214461,"y":64.58618489}},{"type":"Feature","geometry":{"type":"Point","coordinates":[40.530853950000086,64.54106529000013]},"properties":{"city":"Архангельск","cpi_id":888882,"house":"14","id":28196,"name":"Университетская клиника, ООО","post":"163000","street":"Воскресенская","x":40.53085395,"y":64.54106529}},{"type":"Feature","geometry":{"type":"Point","coordinates":[40.56019549000009,64.53054636000014]},"properties":{"city":"Архангельск","cpi_id":932885,"house":"20","id":29592,"name":"Архангельское протезно-ортопедическое предприятие, ООО","post":"163002","street":"Урицкого","x":40.56019549,"y":64.53054636}},{"type":"Feature","geometry":{"type":"Point","coordinates":[40.51589440000008,64.5469954300001]},"properties":{"city":"Архангельск","cpi_id":1001794,"house":"6","id":31833,"name":"Поморье, ООО, медицинский центр","post":"163000","street":"Попова","x":40.5158944,"y":64.54699543}},{"type":"Feature","geometry":{"type":"Point","coordinates":[40.66518400000014,64.51777174000011]},"properties":{"city":"Архангельск","cpi_id":1016633,"house":"50","id":32292,"name":"Георгин, детский медицинский центр","post":"163015","street":"Дачная","x":40.665184,"y":64.51777174}},{"type":"Feature","geometry":{"type":"Point","coordinates":[40.56161607000016,64.53547544000004]},"properties":{"city":"Архангельск","cpi_id":1077042,"house":"7","id":34224,"name":"Архангельская областная детская клиническая больница им. П.Г. Выжлецова, ГБУЗ","post":"163002","street":"Обводный канал проспект","x":40.56161607,"y":64.53547544}},{"type":"Feature","geometry":{"type":"Point","coordinates":[40.53551982000009,64.55861702000006]},"properties":{"city":"Архангельск","cpi_id":1110591,"house":"37","id":35281,"name":"МРТ-ДИАГНОСТИКА, ООО, диагностический центр","post":"163001","street":"Карельская","x":40.53551982,"y":64.55861702}},{"type":"Feature","geometry":{"type":"Point","coordinates":[40.51988446000006,64.55477850000003]},"properties":{"city":"Архангельск","cpi_id":1122304,"house":"115","id":35660,"name":"Северный медицинский клинический центр им. Н.А. Семашко, ФГБУЗ","post":"163001","street":"Троицкий проспект","x":40.51988446,"y":64.5547785}},{"type":"Feature","geometry":{"type":"Point","coordinates":[40.51687658000002,64.5426706100001]},"properties":{"city":"Архангельск","cpi_id":1197771,"house":"94","id":38108,"name":"Bene Valete!, ортопедический отдел","post":"163000","street":"Троицкий проспект","x":40.51687658,"y":64.54267061}},{"type":"Feature","geometry":{"type":"Point","coordinates":[40.52304580000008,64.57033280000013]},"properties":{"city":"Архангельск","cpi_id":1232887,"house":"5","id":39213,"name":"Лидент, стоматологический кабинет","post":"163020","street":"Советская","x":40.5230458,"y":64.5703328}},{"type":"Feature","geometry":{"type":"Point","coordinates":[40.539371970000104,64.53007371000007]},"properties":{"city":"Архангельск","cpi_id":1246554,"house":"30","id":39648,"name":"ЭХО-Медика, медицинский центр","post":"163069","street":"Северной Двины набережная","x":40.53937197,"y":64.53007371}},{"type":"Feature","geometry":{"type":"Point","coordinates":[40.5259560200001,64.56122059000006]},"properties":{"city":"Архангельск","cpi_id":1252388,"house":"124","id":39848,"name":"Первая городская клиническая больница им. Е.Е. Волосевич, ГБУЗ","post":"163001","street":"Северной Двины набережная","x":40.52595602,"y":64.56122059}},{"type":"Feature","geometry":{"type":"Point","coordinates":[40.56019549000009,64.53054636000014]},"properties":{"city":"Архангельск","cpi_id":1268307,"house":"20","id":40346,"name":"Доктор ЛОР, медицинский центр","post":"163002","street":"Урицкого","x":40.56019549,"y":64.53054636}},{"type":"Feature","geometry":{"type":"Point","coordinates":[40.51539717000004,64.54451590000009]},"properties":{"city":"Архангельск","cpi_id":1273935,"house":"65","id":40505,"name":"Живая клиника, центр психосоматики и снижения веса","post":"163000","street":"Троицкий проспект","x":40.51539717,"y":64.5445159}},{"type":"Feature","geometry":{"type":"Point","coordinates":[40.61178502000012,64.52425156000007]},"properties":{"city":"Архангельск","cpi_id":1289608,"house":"109 к2","id":40989,"name":"Мегастом, стоматологическая клиника","post":"163009","street":"Ленинградский проспект","x":40.61178502,"y":64.52425156}},{"type":"Feature","geometry":{"type":"Point","coordinates":[40.54374372000008,64.55907768000003]},"properties":{"city":"Архангельск","cpi_id":1291437,"house":"12 к1","id":41042,"name":"Диамед, ООО, многопрофильный медицинский центр","post":"163072","street":"Самойло","x":40.54374372,"y":64.55907768}},{"type":"Feature","geometry":{"type":"Point","coordinates":[40.43171145000012,64.53860111000006]},"properties":{"city":"Архангельск","cpi_id":1346626,"house":"85","id":42803,"name":"Архангельская городская клиническая поликлиника №1, ГБУЗ","post":"163017","street":"Кегостровская","x":40.43171145,"y":64.53860111}},{"type":"Feature","geometry":{"type":"Point","coordinates":[40.52581635000006,64.53275392000009]},"properties":{"city":"Архангельск","cpi_id":1405669,"house":"66","id":44724,"name":"Северный медицинский клинический центр им. Н.А. Семашко, ФГБУЗ","post":"163069","street":"Северной Двины набережная","x":40.52581635,"y":64.53275392}},{"type":"Feature","geometry":{"type":"Point","coordinates":[40.65151638000005,64.51599494000008]},"properties":{"city":"Архангельск","cpi_id":1405710,"house":"16 к2","id":44728,"name":"Архангельский центр лечебной физкультуры и спортивной медицины","post":"163015","street":"Холмогорская","x":40.65151638,"y":64.51599494}},{"type":"Feature","geometry":{"type":"Point","coordinates":[40.54107880000008,64.53122330000008]},"properties":{"city":"Архангельск","cpi_id":1459544,"house":"16 к1","id":46418,"name":"Другая сторона, центр реабилитации и социальной адаптации, АНО ДО Счастливое детство","post":"","street":"Выучейского","x":40.5410788,"y":64.5312233}},{"type":"Feature","geometry":{"type":"Point","coordinates":[40.6135887600001,64.52519616000009]},"properties":{"city":"Архангельск","cpi_id":1534094,"house":"6","id":48837,"name":"Архангельская городская клиническая поликлиника №2, ГБУЗ","post":"163009","street":"Прокопия Галушина","x":40.61358876,"y":64.52519616}},{"type":"Feature","geometry":{"type":"Point","coordinates":[40.52230820000005,64.53253350000006]},"properties":{"city":"Архангельск","cpi_id":1585033,"house":"71 к1","id":50423,"name":"ДенталГуд, стоматологическая клиника","post":"163069","street":"Северной Двины набережная","x":40.5223082,"y":64.5325335}},{"type":"Feature","geometry":{"type":"Point","coordinates":[40.5323437000001,64.54083799000006]},"properties":{"city":"Архангельск","cpi_id":1591018,"house":"54","id":50612,"name":"Парадиз Денталь, клиника семейной стоматологии","post":"163069","street":"Карла Либкнехта","x":40.5323437,"y":64.54083799}},{"type":"Feature","geometry":{"type":"Point","coordinates":[40.52518785000007,64.54836426000006]},"properties":{"city":"Архангельск","cpi_id":1597686,"house":"204","id":50830,"name":"Эскулап","post":"163000","street":"Ломоносова проспект","x":40.52518785,"y":64.54836426}},{"type":"Feature","geometry":{"type":"Point","coordinates":[40.50412869000011,64.57928692000013]},"properties":{"city":"Архангельск","cpi_id":1687604,"house":"37 к1","id":53668,"name":"NordClinic, медицинская клиника","post":"163020","street":"Никольский проспект","x":40.50412869,"y":64.57928692}},{"type":"Feature","geometry":{"type":"Point","coordinates":[40.538017270000076,64.56380075000006]},"properties":{"city":"Архангельск","cpi_id":1697737,"house":"8","id":53978,"name":"Николь, стоматологический кабинет","post":"163045","street":"Гагарина","x":40.53801727,"y":64.56380075}},{"type":"Feature","geometry":{"type":"Point","coordinates":[40.53992057000009,64.54896873000007]},"properties":{"city":"Архангельск","cpi_id":1757000,"house":"48","id":55868,"name":"StomCareClinic, стоматологическая клиника","post":"163071","street":"Садовая","x":40.53992057,"y":64.54896873}},{"type":"Feature","geometry":{"type":"Point","coordinates":[40.56019549000009,64.53054636000014]},"properties":{"city":"Архангельск","cpi_id":1798746,"house":"20","id":57161,"name":"Ваше здоровье, ООО, медицинский центр","post":"163002","street":"Урицкого","x":40.56019549,"y":64.53054636}},{"type":"Feature","geometry":{"type":"Point","coordinates":[40.5323437000001,64.54083799000006]},"properties":{"city":"Архангельск","cpi_id":1829154,"house":"54","id":58125,"name":"Парадиз премиум, клиника инновационной медицины","post":"163069","street":"Карла Либкнехта","x":40.5323437,"y":64.54083799}},{"type":"Feature","geometry":{"type":"Point","coordinates":[40.51795008000006,64.58530486000006]},"properties":{"city":"Архангельск","cpi_id":1870155,"house":"42 к1","id":59450,"name":"Архангельская городская клиническая больница №7, ГБУЗ","post":"163013","street":"Ярославская","x":40.51795008,"y":64.58530486}},{"type":"Feature","geometry":{"type":"Point","coordinates":[40.55526881000008,64.52786963000004]},"properties":{"city":"Архангельск","cpi_id":1875323,"house":"1","id":59624,"name":"Психологический клуб","post":"163002","street":"Урицкого","x":40.55526881,"y":64.52786963}},{"type":"Feature","geometry":{"type":"Point","coordinates":[40.57012534000009,64.54205696000014]},"properties":{"city":"Архангельск","cpi_id":1881534,"house":"4 к3","id":59804,"name":"Fitness body, студия","post":"163060","street":"Тимме","x":40.57012534,"y":64.54205696}},{"type":"Feature","geometry":{"type":"Point","coordinates":[40.50399958000007,64.64336494000005]},"properties":{"city":"Архангельск","cpi_id":1928581,"house":"16 к3","id":61244,"name":"Архангельская городская клиническая больница №6, ГБУЗ","post":"163023","street":"Проезжая","x":40.50399958,"y":64.64336494}},{"type":"Feature","geometry":{"type":"Point","coordinates":[40.51777855000009,64.55335481000003]},"properties":{"city":"Архангельск","cpi_id":1936028,"house":"2 к1","id":61465,"name":"Центр реабилитации доктора Бубновского, клиника","post":"163000","street":"Гайдара","x":40.51777855,"y":64.55335481}},{"type":"Feature","geometry":{"type":"Point","coordinates":[40.559579980000144,64.5335159400001]},"properties":{"city":"Архангельск","cpi_id":1938082,"house":"7 к7","id":61523,"name":"Архангельская областная детская клиническая больница им. П.Г. Выжлецова, ГБУЗ","post":"163002","street":"Обводный канал проспект","x":40.55957998,"y":64.53351594}},{"type":"Feature","geometry":{"type":"Point","coordinates":[40.535702690000086,64.53187414000006]},"properties":{"city":"Архангельск","cpi_id":1948049,"house":"38","id":61809,"name":"ЕвроСтом, стоматологическая клиника","post":"163069","street":"Северной Двины набережная","x":40.53570269,"y":64.53187414}},{"type":"Feature","geometry":{"type":"Point","coordinates":[40.53273586000011,64.55904996000011]},"properties":{"city":"Архангельск","cpi_id":1960891,"house":"260/1","id":62219,"name":"Поликлиника, 1469 Военно-морской клинический госпиталь Министерства обороны РФ","post":"163001","street":"Ломоносова проспект","x":40.53273586,"y":64.55904996}},{"type":"Feature","geometry":{"type":"Point","coordinates":[40.52781330000006,64.5415051300001]},"properties":{"city":"Архангельск","cpi_id":1964587,"house":"17","id":62328,"name":"White \u0026 Smile, студия косметического отбеливания зубов","post":"163000","street":"Воскресенская","x":40.5278133,"y":64.54150513}},{"type":"Feature","geometry":{"type":"Point","coordinates":[40.52785369000002,64.56196690000007]},"properties":{"city":"Архангельск","cpi_id":1967062,"house":"143/1","id":62410,"name":"Первая городская клиническая больница им. Е.Е. Волосевич, ГБУЗ","post":"163001","street":"Троицкий проспект","x":40.52785369,"y":64.5619669}},{"type":"Feature","geometry":{"type":"Point","coordinates":[40.51812800000008,64.58429924000006]},"properties":{"city":"Архангельск","cpi_id":1994939,"house":"42 к3","id":63318,"name":"Архангельская клиническая психиатрическая больница, ГБУЗ","post":"163013","street":"Ярославская","x":40.518128,"y":64.58429924}},{"type":"Feature","geometry":{"type":"Point","coordinates":[40.523743440000075,64.5384406100001]},"properties":{"city":"Архангельск","cpi_id":1995889,"house":"17 к1","id":63355,"name":"Дента-люкс, стоматологическая клиника","post":"163000","street":"Карла Либкнехта","x":40.52374344,"y":64.53844061}},{"type":"Feature","geometry":{"type":"Point","coordinates":[40.54529714000008,64.56277758000002]},"properties":{"city":"Архангельск","cpi_id":2011357,"house":"292","id":63811,"name":"Bene Valete!, ортопедический отдел","post":"163045","street":"Ломоносова проспект","x":40.54529714,"y":64.56277758}},{"type":"Feature","geometry":{"type":"Point","coordinates":[40.51777855000009,64.55335481000003]},"properties":{"city":"Архангельск","cpi_id":2020618,"house":"2 к1","id":64123,"name":"Кабинет психолога","post":"163000","street":"Гайдара","x":40.51777855,"y":64.55335481}},{"type":"Feature","geometry":{"type":"Point","coordinates":[40.557841200000055,64.55232065000006]},"properties":{"city":"Архангельск","cpi_id":2022456,"house":"22","id":64170,"name":"Архангельская городская клиническая поликлиника №1, ГБУЗ","post":"163051","street":"Тимме","x":40.5578412,"y":64.55232065}},{"type":"Feature","geometry":{"type":"Point","coordinates":[40.520198290000025,64.54526563000016]},"properties":{"city":"Архангельск","cpi_id":2039325,"house":"9","id":64733,"name":"Виком, стоматологическая клиника","post":"163000","street":"Карла Маркса","x":40.52019829,"y":64.54526563}},{"type":"Feature","geometry":{"type":"Point","coordinates":[40.52035571000003,64.53521611000015]},"properties":{"city":"Архангельск","cpi_id":2081615,"house":"39","id":66065,"name":"Сознание, психологический центр","post":"163069","street":"Троицкий проспект","x":40.52035571,"y":64.53521611}},{"type":"Feature","geometry":{"type":"Point","coordinates":[40.532862490000134,64.54581124000005]},"properties":{"city":"Архангельск","cpi_id":2106787,"house":"43","id":66894,"name":"Надежда, центр психолого-медико-социального сопровождения для детей","post":"163000","street":"Попова","x":40.53286249,"y":64.54581124}},{"type":"Feature","geometry":{"type":"Point","coordinates":[40.56353963000007,64.52837663000007]},"properties":{"city":"Архангельск","cpi_id":2172179,"house":"13","id":68984,"name":"Invitro, медицинская компания","post":"163002","street":"Ломоносова проспект","x":40.56353963,"y":64.52837663}},{"type":"Feature","geometry":{"type":"Point","coordinates":[40.5745793500001,64.59987672000007]},"properties":{"city":"Архангельск","cpi_id":2179885,"house":"39 к3","id":69214,"name":"Архангельская городская клиническая больница №6, ГБУЗ","post":"163059","street":"Ильича","x":40.57457935,"y":64.59987672}},{"type":"Feature","geometry":{"type":"Point","coordinates":[40.54117162000007,64.55624089000008]},"properties":{"city":"Архангельск","cpi_id":2184046,"house":"180","id":69334,"name":"Гиппократ, медицинский центр","post":"163072","street":"Советских Космонавтов проспект","x":40.54117162,"y":64.55624089}},{"type":"Feature","geometry":{"type":"Point","coordinates":[40.56192433000011,64.53455497000002]},"properties":{"city":"Архангельск","cpi_id":2189230,"house":"7 к3","id":69493,"name":"Архангельская областная детская клиническая больница им. П.Г. Выжлецова, ГБУЗ","post":"163002","street":"Обводный канал проспект","x":40.56192433,"y":64.53455497}},{"type":"Feature","geometry":{"type":"Point","coordinates":[40.60795877000006,64.52632329000006]},"properties":{"city":"Архангельск","cpi_id":2192522,"house":"9 к1","id":69603,"name":"Диамед, ООО, многопрофильный медицинский центр","post":"163009","street":"Фёдора Абрамова","x":40.60795877,"y":64.52632329}},{"type":"Feature","geometry":{"type":"Point","coordinates":[40.55946040000002,64.53504392999999]},"properties":{"city":"Архангельск","cpi_id":2195699,"house":"7 к1","id":69704,"name":"Архангельская областная детская клиническая больница им. П.Г. Выжлецова, ГБУЗ","post":"163002","street":"Обводный канал проспект","x":40.5594604,"y":64.53504393}},{"type":"Feature","geometry":{"type":"Point","coordinates":[40.536663160000124,64.55939198000002]},"properties":{"city":"Архангельск","cpi_id":2225903,"house":"36","id":70662,"name":"Биолам, лечебно-диагностический центр","post":"163001","street":"Комсомольская","x":40.53666316,"y":64.55939198}},{"type":"Feature","geometry":{"type":"Point","coordinates":[40.52053215000006,64.55496695000008]},"properties":{"city":"Архангельск","cpi_id":2229420,"house":"6 к1","id":70759,"name":"BrainPro, центр специальных исследований","post":"163001","street":"Вологодская","x":40.52053215,"y":64.55496695}},{"type":"Feature","geometry":{"type":"Point","coordinates":[40.52922687000005,64.5581911000001]},"properties":{"city":"Архангельск","cpi_id":2291516,"house":"16","id":72715,"name":"Никс Трейдинг, стоматологическая клиника","post":"163001","street":"Суворова","x":40.52922687,"y":64.5581911}},{"type":"Feature","geometry":{"type":"Point","coordinates":[40.77262946000011,64.48398452000006]},"properties":{"city":"Архангельск","cpi_id":2348873,"house":"6","id":74534,"name":"Архангельская городская клиническая больница №4, ГБУЗ","post":"163058","street":"Силикатчиков","x":40.77262946,"y":64.48398452}},{"type":"Feature","geometry":{"type":"Point","coordinates":[40.52304580000008,64.57033280000013]},"properties":{"city":"Архангельск","cpi_id":2402634,"house":"5","id":76221,"name":"Пластический хирург Маяков А.А.","post":"163020","street":"Советская","x":40.5230458,"y":64.5703328}},{"type":"Feature","geometry":{"type":"Point","coordinates":[40.56481962000003,64.53256824000005]},"properties":{"city":"Архангельск","cpi_id":2421902,"house":"20","id":76832,"name":"Норд-МЕДИКА, ООО, неврологический центр диагностики и реабилитации","post":"163002","street":"Красноармейская","x":40.56481962,"y":64.53256824}},{"type":"Feature","geometry":{"type":"Point","coordinates":[40.53650015000011,64.53608588000003]},"properties":{"city":"Архангельск","cpi_id":2487677,"house":"39","id":78938,"name":"Стоматологический кабинет","post":"163046","street":"Серафимовича","x":40.53650015,"y":64.53608588}},{"type":"Feature","geometry":{"type":"Point","coordinates":[40.53551982000009,64.55861702000006]},"properties":{"city":"Архангельск","cpi_id":2489469,"house":"37","id":78987,"name":"Доктор Соран, медицинская многопрофильная клиника","post":"163001","street":"Карельская","x":40.53551982,"y":64.55861702}},{"type":"Feature","geometry":{"type":"Point","coordinates":[40.51817341000002,64.53862877000009]},"properties":{"city":"Архангельск","cpi_id":2529254,"house":"4","id":80279,"name":"Кабинет психолога","post":"163069","street":"Ленина площадь","x":40.51817341,"y":64.53862877}},{"type":"Feature","geometry":{"type":"Point","coordinates":[40.527118580000106,64.5629570400001]},"properties":{"city":"Архангельск","cpi_id":2534591,"house":"125","id":80460,"name":"Первая городская клиническая больница им. Е.Е. Волосевич, ГБУЗ","post":"163001","street":"Северной Двины набережная","x":40.52711858,"y":64.56295704}},{"type":"Feature","geometry":{"type":"Point","coordinates":[40.558052080000024,64.53508118000013]},"properties":{"city":"Архангельск","cpi_id":2535033,"house":"9 к2","id":80486,"name":"Офтальмологическая Лазерная Клиника, ООО","post":"163002","street":"Обводный канал проспект","x":40.55805208,"y":64.53508118}},{"type":"Feature","geometry":{"type":"Point","coordinates":[40.53016706000004,64.56263985000007]},"properties":{"city":"Архангельск","cpi_id":2547072,"house":"145","id":80898,"name":"АрхМед, магазин медицинских товаров","post":"163001","street":"Троицкий проспект","x":40.53016706,"y":64.56263985}},{"type":"Feature","geometry":{"type":"Point","coordinates":[40.5239952000001,64.53640572000009]},"properties":{"city":"Архангельск","cpi_id":2553810,"house":"39","id":81126,"name":"Кабинет детского психолога","post":"","street":"Чумбарова-Лучинского проспект","x":40.5239952,"y":64.53640572}},{"type":"Feature","geometry":{"type":"Point","coordinates":[40.52631168000004,64.5499673900001]},"properties":{"city":"Архангельск","cpi_id":2564054,"house":"216","id":81451,"name":"Твоя улыбка, стоматологическая клиника","post":"163000","street":"Ломоносова проспект","x":40.52631168,"y":64.54996739}},{"type":"Feature","geometry":{"type":"Point","coordinates":[40.52984511000004,64.53611570000001]},"properties":{"city":"Архангельск","cpi_id":2568091,"house":"119 к2","id":81581,"name":"Центр пародонтологии и имплантации, ООО","post":"","street":"Ломоносова проспект","x":40.52984511,"y":64.5361157}},{"type":"Feature","geometry":{"type":"Point","coordinates":[40.61124540000009,64.52576366000011]},"properties":{"city":"Архангельск","cpi_id":2608075,"house":"5","id":82907,"name":"Invitro, медицинская компания","post":"163009","street":"Прокопия Галушина","x":40.6112454,"y":64.52576366}},{"type":"Feature","geometry":{"type":"Point","coordinates":[40.54440559000008,64.54478748000008]},"properties":{"city":"Архангельск","cpi_id":2611750,"house":"87","id":83034,"name":"Студия 32, стоматологический центр","post":"163046","street":"Воскресенская","x":40.54440559,"y":64.54478748}},{"type":"Feature","geometry":{"type":"Point","coordinates":[40.54305151000007,64.56316881000006]},"properties":{"city":"Архангельск","cpi_id":2663660,"house":"2 к1","id":84655,"name":"Архангельский клинический кожно-венерологический диспансер, ГАУЗ","post":"163045","street":"Сибиряковцев проезд","x":40.54305151,"y":64.56316881}},{"type":"Feature","geometry":{"type":"Point","coordinates":[40.519400770000054,64.55364945000014]},"properties":{"city":"Архангельск","cpi_id":2706691,"house":"3","id":86045,"name":"Доверие, центр платных медицинских услуг, ГБУЗ Первая ГКБ им. Е.Е. Волосевич","post":"163001","street":"Гайдара","x":40.51940077,"y":64.55364945}},{"type":"Feature","geometry":{"type":"Point","coordinates":[40.343027820000096,64.52916079000009]},"properties":{"city":"Архангельск","cpi_id":2736775,"house":"3 к1","id":87070,"name":"Первая городская клиническая больница им. Е.Е. Волосевич, ГБУЗ","post":"163044","street":"Красина","x":40.34302782,"y":64.52916079}},{"type":"Feature","geometry":{"type":"Point","coordinates":[40.567029310000116,64.53779532000003]},"properties":{"city":"Архангельск","cpi_id":2755173,"house":"47","id":87685,"name":"Тонус, центр диагностики","post":"163060","street":"Урицкого","x":40.56702931,"y":64.53779532}},{"type":"Feature","geometry":{"type":"Point","coordinates":[40.53099037000005,64.54515332000008]},"properties":{"city":"Архангельск","cpi_id":2758799,"house":"32","id":87817,"name":"Импластом, стоматологическая клиника","post":"163000","street":"Попова","x":40.53099037,"y":64.54515332}},{"type":"Feature","geometry":{"type":"Point","coordinates":[40.55533431000003,64.55311020000008]},"properties":{"city":"Архангельск","cpi_id":2775584,"house":"25","id":88362,"name":"Доктор ЛОР, медицинский центр","post":"163071","street":"Тимме","x":40.55533431,"y":64.5531102}},{"type":"Feature","geometry":{"type":"Point","coordinates":[40.56042558000015,64.53491012000012]},"properties":{"city":"Архангельск","cpi_id":2776247,"house":"7 к2","id":88379,"name":"Архангельская областная детская клиническая больница им. П.Г. Выжлецова, ГБУЗ","post":"163002","street":"Обводный канал проспект","x":40.56042558,"y":64.53491012}},{"type":"Feature","geometry":{"type":"Point","coordinates":[40.58188869000006,64.60264605000006]},"properties":{"city":"Архангельск","cpi_id":2791118,"house":"60","id":88867,"name":"Архангельская городская клиническая больница №6, ГБУЗ","post":"163059","street":"Ильича","x":40.58188869,"y":64.60264605}},{"type":"Feature","geometry":{"type":"Point","coordinates":[40.666295280000085,64.51519893000001]},"properties":{"city":"Архангельск","cpi_id":2802858,"house":"40 к1","id":89247,"name":"Архангельская городская клиническая больница №4, ГБУЗ","post":"163057","street":"Дачная","x":40.66629528,"y":64.51519893}},{"type":"Feature","geometry":{"type":"Point","coordinates":[40.519485030000105,64.54667538000007]},"properties":{"city":"Архангельск","cpi_id":2811504,"house":"14","id":89524,"name":"ПолиДент, медицинский центр","post":"163000","street":"Попова","x":40.51948503,"y":64.54667538}},{"type":"Feature","geometry":{"type":"Point","coordinates":[40.52496579000009,64.55506782000006]},"properties":{"city":"Архангельск","cpi_id":2816905,"house":"17","id":89689,"name":"Архангельская областная клиническая стоматологическая поликлиника, ГАУЗ","post":"163001","street":"Вологодская","x":40.52496579,"y":64.55506782}},{"type":"Feature","geometry":{"type":"Point","coordinates":[40.504805970000106,64.58785569000011]},"properties":{"city":"Архангельск","cpi_id":2821239,"house":"148","id":89822,"name":"Цихея, стоматологическая клиника","post":"163020","street":"Никольский проспект","x":40.50480597,"y":64.58785569}},{"type":"Feature","geometry":{"type":"Point","coordinates":[40.621827190000054,64.53461350000003]},"properties":{"city":"Архангельск","cpi_id":2845467,"house":"23","id":90611,"name":"Центр амбулаторного гемодиализа Архангельск, ООО","post":"163065","street":"Прокопия Галушина","x":40.62182719,"y":64.5346135}},{"type":"Feature","geometry":{"type":"Point","coordinates":[40.33786417000009,64.53136353000008]},"properties":{"city":"Архангельск","cpi_id":2881574,"house":"22","id":91823,"name":"Первая городская клиническая больница им. Е.Е. Волосевич, ГБУЗ","post":"163044","street":"Мира","x":40.33786417,"y":64.53136353}},{"type":"Feature","geometry":{"type":"Point","coordinates":[40.523902840000055,64.55579424000007]},"properties":{"city":"Архангельск","cpi_id":2888048,"house":"158","id":92019,"name":"Дент-Мастер, ООО, стоматологическая клиника","post":"163001","street":"Троицкий проспект","x":40.52390284,"y":64.55579424}},{"type":"Feature","geometry":{"type":"Point","coordinates":[40.572337930000096,64.54056346000006]},"properties":{"city":"Архангельск","cpi_id":2929665,"house":"2","id":93287,"name":"Invitro, медицинская компания","post":"163060","street":"Тимме","x":40.57233793,"y":64.54056346}},{"type":"Feature","geometry":{"type":"Point","coordinates":[40.51605615000008,64.54408271000007]},"properties":{"city":"Архангельск","cpi_id":2935509,"house":"63","id":93486,"name":"Кабинет психолога","post":"163000","street":"Троицкий проспект","x":40.51605615,"y":64.54408271}},{"type":"Feature","geometry":{"type":"Point","coordinates":[40.51622744000012,64.54473722000003]},"properties":{"city":"Архангельск","cpi_id":2970789,"house":"67","id":94617,"name":"Любимый Доктор, стоматологический центр","post":"163000","street":"Троицкий проспект","x":40.51622744,"y":64.54473722}},{"type":"Feature","geometry":{"type":"Point","coordinates":[40.571455330000106,64.54940321000007]},"properties":{"city":"Архангельск","cpi_id":3009445,"house":"11","id":95893,"name":"Первая городская клиническая больница им. Е.Е. Волосевич, ГБУЗ","post":"163051","street":"Дзержинского проспект","x":40.57145533,"y":64.54940321}},{"type":"Feature","geometry":{"type":"Point","coordinates":[40.55273689000011,64.53156217000003]},"properties":{"city":"Архангельск","cpi_id":3012495,"house":"42","id":96009,"name":"Архангельская городская клиническая поликлиника №2, ГБУЗ","post":"163002","street":"Ломоносова проспект","x":40.55273689,"y":64.53156217}},{"type":"Feature","geometry":{"type":"Point","coordinates":[40.51898172000013,64.58488533000008]},"properties":{"city":"Архангельск","cpi_id":3030662,"house":"42","id":96591,"name":"Женская консультация, Архангельская городская клиническая больница №7","post":"163013","street":"Ярославская","x":40.51898172,"y":64.58488533}},{"type":"Feature","geometry":{"type":"Point","coordinates":[40.54757199000009,64.54315306000007]},"properties":{"city":"Архангельск","cpi_id":3041657,"house":"18","id":96942,"name":"Центр ЭКО","post":"163046","street":"Суфтина","x":40.54757199,"y":64.54315306}},{"type":"Feature","geometry":{"type":"Point","coordinates":[40.54505233000008,64.54150333000007]},"properties":{"city":"Архангельск","cpi_id":3061303,"house":"78 к1","id":97566,"name":"Альтернатива, диагностический кабинет","post":"163046","street":"Володарского","x":40.54505233,"y":64.54150333}},{"type":"Feature","geometry":{"type":"Point","coordinates":[40.554832710000014,64.56316078000006]},"properties":{"city":"Архангельск","cpi_id":3133213,"house":"17","id":99896,"name":"Архангельская областная клиническая стоматологическая поликлиника, ГАУЗ","post":"163045","street":"Сибиряковцев проезд","x":40.55483271,"y":64.56316078}},{"type":"Feature","geometry":{"type":"Point","coordinates":[40.50412869000011,64.57928692000013]},"properties":{"city":"Архангельск","cpi_id":3191299,"house":"37 к1","id":101767,"name":"Invitro, медицинская компания","post":"163020","street":"Никольский проспект","x":40.50412869,"y":64.57928692}},{"type":"Feature","geometry":{"type":"Point","coordinates":[40.550124230000094,64.54858168000005]},"properties":{"city":"Архангельск","cpi_id":3224439,"house":"6 к1","id":102822,"name":"Архангельская детская стоматологическая поликлиника, ГАУЗ","post":"163071","street":"Приорова проезд","x":40.55012423,"y":64.54858168}},{"type":"Feature","geometry":{"type":"Point","coordinates":[40.51605615000008,64.54408271000007]},"properties":{"city":"Архангельск","cpi_id":3249787,"house":"63","id":103619,"name":"Веселый крокодил, стоматология","post":"163000","street":"Троицкий проспект","x":40.51605615,"y":64.54408271}},{"type":"Feature","geometry":{"type":"Point","coordinates":[40.53800316000014,64.53253784000009]},"properties":{"city":"Архангельск","cpi_id":45431,"house":"2","id":104359,"name":"МБМ, ООО, магазин оптики","post":"","street":"Чумбарова-Лучинского проспект","x":40.53800316,"y":64.53253784}},{"type":"Feature","geometry":{"type":"Point","coordinates":[40.52846736000002,64.5427100200001]},"properties":{"city":"Архангельск","cpi_id":150606,"house":"53","id":105922,"name":"Дентамед, ООО, стоматологический центр","post":"163000","street":"Свободы","x":40.52846736,"y":64.54271002}},{"type":"Feature","geometry":{"type":"Point","coordinates":[40.537158200000086,64.55005163000007]},"properties":{"city":"Архангельск","cpi_id":163115,"house":"53","id":106083,"name":"Архком, ООО, стоматологический центр","post":"163071","street":"Садовая","x":40.5371582,"y":64.55005163}},{"type":"Feature","geometry":{"type":"Point","coordinates":[40.558052080000024,64.53508118000013]},"properties":{"city":"Архангельск","cpi_id":165464,"house":"9 к2","id":106142,"name":"Архангельская клиническая офтальмологическая больница","post":"163002","street":"Обводный канал проспект","x":40.55805208,"y":64.53508118}},{"type":"Feature","geometry":{"type":"Point","coordinates":[40.54690162000005,64.5622213400001]},"properties":{"city":"Архангельск","cpi_id":183882,"house":"17 к1","id":106296,"name":"Архангельская областная клиническая больница, ГБУЗ","post":"163045","street":"Самойло","x":40.54690162,"y":64.56222134}},{"type":"Feature","geometry":{"type":"Point","coordinates":[40.529094530000094,64.5575982100001]},"properties":{"city":"Архангельск","cpi_id":213827,"house":"271","id":106668,"name":"Приморская центральная районная больница, ГБУЗ","post":"163001","street":"Ломоносова проспект","x":40.52909453,"y":64.55759821}},{"type":"Feature","geometry":{"type":"Point","coordinates":[40.531814240000124,64.5484510200001]},"properties":{"city":"Архангельск","cpi_id":237310,"house":"21/1","id":107010,"name":"Эскулап","post":"163000","street":"Логинова","x":40.53181424,"y":64.54845102}},{"type":"Feature","geometry":{"type":"Point","coordinates":[40.66626731000008,64.51372488000007]},"properties":{"city":"Архангельск","cpi_id":336683,"house":"9","id":108358,"name":"Архангельская областная клиническая стоматологическая поликлиника, ГАУЗ","post":"163057","street":"Папанина","x":40.66626731,"y":64.51372488}},{"type":"Feature","geometry":{"type":"Point","coordinates":[40.533983670000076,64.53250506000009]},"properties":{"city":"Архангельск","cpi_id":358026,"house":"7 к1","id":108578,"name":"Мистер ПрезиДент, стоматологическая клиника","post":"","street":"Чумбарова-Лучинского проспект","x":40.53398367,"y":64.53250506}},{"type":"Feature","geometry":{"type":"Point","coordinates":[40.56337277000013,64.54750808000011]},"properties":{"city":"Архангельск","cpi_id":363785,"house":"12","id":108739,"name":"Гемотест, лаборатория","post":"163051","street":"Тимме","x":40.56337277,"y":64.54750808}},{"type":"Feature","geometry":{"type":"Point","coordinates":[40.55626755000006,64.55231339000005]},"properties":{"city":"Архангельск","cpi_id":407451,"house":"23","id":109212,"name":"Бюро лицензионных услуг, ООО, компания по проведению предрейсовых осмотров","post":"163071","street":"Тимме","x":40.55626755,"y":64.55231339}},{"type":"Feature","geometry":{"type":"Point","coordinates":[40.53576047000007,64.54914559000012]},"properties":{"city":"Архангельск","cpi_id":425684,"house":"140","id":109540,"name":"Dr. Alex manuelle therapie","post":"163071","street":"Советских Космонавтов проспект","x":40.53576047,"y":64.54914559}},{"type":"Feature","geometry":{"type":"Point","coordinates":[40.48488351000009,64.61322468000009]},"properties":{"city":"Архангельск","cpi_id":461820,"house":"2","id":109983,"name":"Архангельская городская клиническая больница №7, ГБУЗ","post":"163018","street":"Юнг Военно-Морского Флота","x":40.48488351,"y":64.61322468}},{"type":"Feature","geometry":{"type":"Point","coordinates":[40.54757199000009,64.54315306000007]},"properties":{"city":"Архангельск","cpi_id":525993,"house":"18","id":110796,"name":"Центр амбулаторного гемодиализа Архангельск, ООО","post":"163046","street":"Суфтина","x":40.54757199,"y":64.54315306}},{"type":"Feature","geometry":{"type":"Point","coordinates":[40.56855531000009,64.54758030000009]},"properties":{"city":"Архангельск","cpi_id":554412,"house":"116 к3","id":111056,"name":"ЗДОРОВАЯ СЕМЬЯ, медицинский центр","post":"163051","street":"Воскресенская","x":40.56855531,"y":64.5475803}},{"type":"Feature","geometry":{"type":"Point","coordinates":[40.52519965000008,64.5510133100001]},"properties":{"city":"Архангельск","cpi_id":639157,"house":"23","id":112253,"name":"Никс Трейдинг, стоматологическая клиника","post":"163000","street":"Садовая","x":40.52519965,"y":64.55101331}},{"type":"Feature","geometry":{"type":"Point","coordinates":[40.55533431000003,64.55311020000008]},"properties":{"city":"Архангельск","cpi_id":738430,"house":"25","id":113561,"name":"Томэс, стоматология","post":"163071","street":"Тимме","x":40.55533431,"y":64.5531102}},{"type":"Feature","geometry":{"type":"Point","coordinates":[40.57184279000009,64.53972163000007]},"properties":{"city":"Архангельск","cpi_id":914111,"house":"68 к1","id":115820,"name":"Первый ПОДОЛОГический Центр","post":"163060","street":"Урицкого","x":40.57184279,"y":64.53972163}},{"type":"Feature","geometry":{"type":"Point","coordinates":[40.56833369000008,64.5413084500001]},"properties":{"city":"Архангельск","cpi_id":928583,"house":"1","id":115856,"name":"Архангельская городская клиническая поликлиника №2, ГБУЗ","post":"163060","street":"Тимме","x":40.56833369,"y":64.54130845}},{"type":"Feature","geometry":{"type":"Point","coordinates":[40.53248396000004,64.54532494000009]},"properties":{"city":"Архангельск","cpi_id":930952,"house":"115","id":115918,"name":"ЛАБОРАТОРИЯ ЗДОРОВЬЯ, клинико-диагностический центр","post":"163000","street":"Советских Космонавтов проспект","x":40.53248396,"y":64.54532494}},{"type":"Feature","geometry":{"type":"Point","coordinates":[40.56601594000004,64.54323867000012]},"properties":{"city":"Архангельск","cpi_id":1099568,"house":"5","id":118298,"name":"ЛДЦ МИБС-Архангельск, центр диагностики","post":"163060","street":"Тимме","x":40.56601594,"y":64.54323867}},{"type":"Feature","geometry":{"type":"Point","coordinates":[40.620269390000054,64.43106887000002]},"properties":{"city":"Архангельск","cpi_id":1118820,"house":"11","id":118480,"name":"Архангельская городская клиническая больница №4, ГБУЗ","post":"163039","street":"Клепача","x":40.62026939,"y":64.43106887}},{"type":"Feature","geometry":{"type":"Point","coordinates":[40.52702502000003,64.53291705000007]},"properties":{"city":"Архангельск","cpi_id":1160339,"house":"21","id":119049,"name":"Кабинет психолога Марии Климовой","post":"","street":"Троицкий проспект","x":40.52702502,"y":64.53291705}},{"type":"Feature","geometry":{"type":"Point","coordinates":[40.549383020000086,64.54385055000012]},"properties":{"city":"Архангельск","cpi_id":1239747,"house":"63","id":119951,"name":"Улыбка, ООО, стоматологическая клиника","post":"163046","street":"Выучейского","x":40.54938302,"y":64.54385055}},{"type":"Feature","geometry":{"type":"Point","coordinates":[40.54529909000013,64.53141471000006]},"properties":{"city":"Архангельск","cpi_id":1241927,"house":"12","id":120013,"name":"ЕвроСтом, стоматологическая клиника","post":"","street":"Розы Люксембург","x":40.54529909,"y":64.53141471}},{"type":"Feature","geometry":{"type":"Point","coordinates":[40.53435437000005,64.55945515000005]},"properties":{"city":"Архангельск","cpi_id":1264897,"house":"268","id":120297,"name":"Кабинет психологической консультации","post":"163001","street":"Ломоносова проспект","x":40.53435437,"y":64.55945515}},{"type":"Feature","geometry":{"type":"Point","coordinates":[40.568830280000114,64.53769798000015]},"properties":{"city":"Архангельск","cpi_id":1293663,"house":"54 к2","id":120744,"name":"Стоматологический кабинет","post":"163060","street":"Урицкого","x":40.56883028,"y":64.53769798}},{"type":"Feature","geometry":{"type":"Point","coordinates":[40.61536588000012,64.53259467000008]},"properties":{"city":"Архангельск","cpi_id":1296472,"house":"45","id":120802,"name":"Зубной лекарь, стоматологическая клиника, ООО Архком","post":"163065","street":"Московский проспект","x":40.61536588,"y":64.53259467}},{"type":"Feature","geometry":{"type":"Point","coordinates":[40.58494785000011,64.59400408000012]},"properties":{"city":"Архангельск","cpi_id":1388744,"house":"19","id":121898,"name":"Современная стоматология, ООО","post":"163059","street":"Кировская","x":40.58494785,"y":64.59400408}},{"type":"Feature","geometry":{"type":"Point","coordinates":[40.51898172000013,64.58488533000008]},"properties":{"city":"Архангельск","cpi_id":1398141,"house":"42","id":122176,"name":"Архангельская городская клиническая больница №7, ГБУЗ","post":"163013","street":"Ярославская","x":40.51898172,"y":64.58488533}},{"type":"Feature","geometry":{"type":"Point","coordinates":[40.5356090400001,64.53714663000014]},"properties":{"city":"Архангельск","cpi_id":1468854,"house":"89","id":122952,"name":"Здоровый малыш, детский медицинский центр, ООО ОЧАГ","post":"163046","street":"Новгородский проспект","x":40.53560904,"y":64.53714663}},{"type":"Feature","geometry":{"type":"Point","coordinates":[40.54312629000002,64.55069924000001]},"properties":{"city":"Архангельск","cpi_id":1491866,"house":"44/1","id":123241,"name":"Зубной клуб, стоматологическая клиника","post":"163071","street":"Гайдара","x":40.54312629,"y":64.55069924}},{"type":"Feature","geometry":{"type":"Point","coordinates":[40.58188869000006,64.60264605000006]},"properties":{"city":"Архангельск","cpi_id":1547142,"house":"60","id":123953,"name":"Центр паллиативной медицинской помощи, Городская клиническая больница №6","post":"163059","street":"Ильича","x":40.58188869,"y":64.60264605}},{"type":"Feature","geometry":{"type":"Point","coordinates":[40.53888476000002,64.53666711000012]},"properties":{"city":"Архангельск","cpi_id":1642017,"house":"74","id":125305,"name":"Психолог Валентина Морозова","post":"163069","street":"Новгородский проспект","x":40.53888476,"y":64.53666711}},{"type":"Feature","geometry":{"type":"Point","coordinates":[40.53164003000009,64.53763553000002]},"properties":{"city":"Архангельск","cpi_id":1665768,"house":"34 к1","id":125614,"name":"Селена, стоматологический центр","post":"163046","street":"Поморская","x":40.53164003,"y":64.53763553}},{"type":"Feature","geometry":{"type":"Point","coordinates":[40.58494785000011,64.59400408000012]},"properties":{"city":"Архангельск","cpi_id":1721626,"house":"19","id":126444,"name":"City Style, оптика","post":"163059","street":"Кировская","x":40.58494785,"y":64.59400408}},{"type":"Feature","geometry":{"type":"Point","coordinates":[40.55571789000005,64.55457265000007]},"properties":{"city":"Архангельск","cpi_id":1854654,"house":"30","id":128043,"name":"Медклиника гармония, ООО","post":"163051","street":"Тимме","x":40.55571789,"y":64.55457265}},{"type":"Feature","geometry":{"type":"Point","coordinates":[40.54791629000008,64.5646778500001]},"properties":{"city":"Архангельск","cpi_id":1933095,"house":"15","id":129211,"name":"Архангельская областная клиническая больница, ГБУЗ","post":"163045","street":"Сибиряковцев проезд","x":40.54791629,"y":64.56467785}},{"type":"Feature","geometry":{"type":"Point","coordinates":[40.519134090000136,64.54459313000008]},"properties":{"city":"Архангельск","cpi_id":2001843,"house":"12 к1","id":130046,"name":"Гемотест, лаборатория","post":"163000","street":"Карла Маркса","x":40.51913409,"y":64.54459313}},{"type":"Feature","geometry":{"type":"Point","coordinates":[40.56601594000004,64.54323867000012]},"properties":{"city":"Архангельск","cpi_id":2048876,"house":"5","id":130586,"name":"РЖД-Медицина, многопрофильный медицинский центр","post":"163060","street":"Тимме","x":40.56601594,"y":64.54323867}},{"type":"Feature","geometry":{"type":"Point","coordinates":[40.52304580000008,64.57033280000013]},"properties":{"city":"Архангельск","cpi_id":2105506,"house":"5","id":131463,"name":"АМА-Меридиан, лечебно-оздоровительный центр","post":"163020","street":"Советская","x":40.5230458,"y":64.5703328}},{"type":"Feature","geometry":{"type":"Point","coordinates":[40.509819010000086,64.5403488100001]},"properties":{"city":"Архангельск","cpi_id":2125296,"house":"87","id":131642,"name":"Пульс, многопрофильная клиника","post":"163000","street":"Северной Двины набережная","x":40.50981901,"y":64.54034881}},{"type":"Feature","geometry":{"type":"Point","coordinates":[40.5451772700001,64.56174819000012]},"properties":{"city":"Архангельск","cpi_id":2144473,"house":"17","id":131798,"name":"Архангельская областная клиническая больница, ГБУЗ","post":"163045","street":"Самойло","x":40.54517727,"y":64.56174819}},{"type":"Feature","geometry":{"type":"Point","coordinates":[40.552116630000135,64.53208901000005]},"properties":{"city":"Архангельск","cpi_id":2188921,"house":"16","id":132485,"name":"Архангельская городская клиническая поликлиника №2, ГБУЗ","post":"163002","street":"Северодвинская","x":40.55211663,"y":64.53208901}},{"type":"Feature","geometry":{"type":"Point","coordinates":[40.54757199000009,64.54315306000007]},"properties":{"city":"Архангельск","cpi_id":2205273,"house":"18","id":132673,"name":"АВА КЛИНИК, многопрофильный медицинский центр","post":"163046","street":"Суфтина","x":40.54757199,"y":64.54315306}},{"type":"Feature","geometry":{"type":"Point","coordinates":[40.5249928000001,64.55895611000005]},"properties":{"city":"Архангельск","cpi_id":2224009,"house":"166","id":132828,"name":"Гемотест, лаборатория","post":"163001","street":"Троицкий проспект","x":40.5249928,"y":64.55895611}},{"type":"Feature","geometry":{"type":"Point","coordinates":[40.623617190000104,64.53173191000008]},"properties":{"city":"Архангельск","cpi_id":2229670,"house":"24 к1","id":132980,"name":"Энтони, стоматологический центр","post":"163065","street":"Прокопия Галушина","x":40.62361719,"y":64.53173191}},{"type":"Feature","geometry":{"type":"Point","coordinates":[40.541720760000075,64.56205648999999]},"properties":{"city":"Архангельск","cpi_id":2369478,"house":"12","id":134710,"name":"Медицинский мир, салон-магазин, ООО Юнивер","post":"163072","street":"Гагарина","x":40.54172076,"y":64.56205649}},{"type":"Feature","geometry":{"type":"Point","coordinates":[40.524846130000135,64.56068906000007]},"properties":{"city":"Архангельск","cpi_id":2379036,"house":"5","id":134975,"name":"Доверие, центр платных медицинских услуг, ГБУЗ Первая ГКБ им. Е.Е. Волосевич","post":"163001","street":"Суворова","x":40.52484613,"y":64.56068906}},{"type":"Feature","geometry":{"type":"Point","coordinates":[40.56353963000007,64.52837663000007]},"properties":{"city":"Архангельск","cpi_id":2380856,"house":"13","id":135031,"name":"ДЕМЕТРА","post":"163002","street":"Ломоносова проспект","x":40.56353963,"y":64.52837663}},{"type":"Feature","geometry":{"type":"Point","coordinates":[40.54952753000007,64.5635156700001]},"properties":{"city":"Архангельск","cpi_id":2394355,"house":"2 к3","id":135050,"name":"Архангельская областная клиническая больница, ГБУЗ","post":"163045","street":"Сибиряковцев проезд","x":40.54952753,"y":64.56351567}},{"type":"Feature","geometry":{"type":"Point","coordinates":[40.51641782000015,64.53760947000006]},"properties":{"city":"Архангельск","cpi_id":2395795,"house":"64","id":135097,"name":"Медицина-Сервис, стоматологическая клиника","post":"163069","street":"Троицкий проспект","x":40.51641782,"y":64.53760947}},{"type":"Feature","geometry":{"type":"Point","coordinates":[40.52304580000008,64.57033280000013]},"properties":{"city":"Архангельск","cpi_id":2415728,"house":"5","id":135432,"name":"Пульс, многопрофильная клиника","post":"163020","street":"Советская","x":40.5230458,"y":64.5703328}},{"type":"Feature","geometry":{"type":"Point","coordinates":[40.56601594000004,64.54323867000012]},"properties":{"city":"Архангельск","cpi_id":2441729,"house":"5","id":135740,"name":"РЖД-Медицина, клиническая поликлиника","post":"163060","street":"Тимме","x":40.56601594,"y":64.54323867}},{"type":"Feature","geometry":{"type":"Point","coordinates":[40.54997636000007,64.54521333000007]},"properties":{"city":"Архангельск","cpi_id":2560269,"house":"102","id":137318,"name":"РИМ, медицинский салон","post":"163046","street":"Воскресенская","x":40.54997636,"y":64.54521333}},{"type":"Feature","geometry":{"type":"Point","coordinates":[40.53968019000012,64.5639694600001]},"properties":{"city":"Архангельск","cpi_id":2579398,"house":"11","id":137619,"name":"Шаг, ортопедический салон","post":"163045","street":"Гагарина","x":40.53968019,"y":64.56396946}},{"type":"Feature","geometry":{"type":"Point","coordinates":[40.52652446000012,64.54826651000013]},"properties":{"city":"Архангельск","cpi_id":2648297,"house":"14 к1","id":138472,"name":"Мой зубной, стоматология","post":"163000","street":"Логинова","x":40.52652446,"y":64.54826651}},{"type":"Feature","geometry":{"type":"Point","coordinates":[40.53888476000002,64.53666711000012]},"properties":{"city":"Архангельск","cpi_id":2699114,"house":"74","id":139134,"name":"ОртоМакс, ООО, стоматология","post":"163069","street":"Новгородский проспект","x":40.53888476,"y":64.53666711}},{"type":"Feature","geometry":{"type":"Point","coordinates":[40.52394729000007,64.55934343000007]},"properties":{"city":"Архангельск","cpi_id":2750806,"house":"137","id":139825,"name":"Шаг, ортопедический салон","post":"163001","street":"Троицкий проспект","x":40.52394729,"y":64.55934343}},{"type":"Feature","geometry":{"type":"Point","coordinates":[40.65151638000005,64.51599494000008]},"properties":{"city":"Архангельск","cpi_id":2811639,"house":"16 к2","id":140618,"name":"Семейный центр здоровья, Архангельский центр лечебной физкультуры и спортивной медицины","post":"163015","street":"Холмогорская","x":40.65151638,"y":64.51599494}},{"type":"Feature","geometry":{"type":"Point","coordinates":[40.51970548000007,64.53305105000005]},"properties":{"city":"Архангельск","cpi_id":2853817,"house":"73","id":141175,"name":"Двина-стом, ООО, стоматологический кабинет","post":"163069","street":"Северной Двины набережная","x":40.51970548,"y":64.53305105}},{"type":"Feature","geometry":{"type":"Point","coordinates":[40.51977923000011,64.54733661000004]},"properties":{"city":"Архангельск","cpi_id":2896027,"house":"9/1","id":141656,"name":"Архангельская городская детская клиническая больница, ГБУЗ","post":"163000","street":"Попова","x":40.51977923,"y":64.54733661}},{"type":"Feature","geometry":{"type":"Point","coordinates":[40.62196163000006,64.5325939400001]},"properties":{"city":"Архангельск","cpi_id":2902863,"house":"24","id":141849,"name":"Гемотест, медицинская лаборатория","post":"163065","street":"Прокопия Галушина","x":40.62196163,"y":64.53259394}},{"type":"Feature","geometry":{"type":"Point","coordinates":[40.52304580000008,64.57033280000013]},"properties":{"city":"Архангельск","cpi_id":2917659,"house":"5","id":141900,"name":"Неврологический кабинет Гаевской И.И.","post":"163020","street":"Советская","x":40.5230458,"y":64.5703328}},{"type":"Feature","geometry":{"type":"Point","coordinates":[40.52465885000008,64.55812207000011]},"properties":{"city":"Архангельск","cpi_id":2943541,"house":"164","id":142271,"name":"Invitro, медицинская компания","post":"163001","street":"Троицкий проспект","x":40.52465885,"y":64.55812207}},{"type":"Feature","geometry":{"type":"Point","coordinates":[40.53241362000009,64.55095323000006]},"properties":{"city":"Архангельск","cpi_id":2974157,"house":"174","id":142760,"name":"Family Stom, стоматологическая клиника","post":"163000","street":"Новгородский проспект","x":40.53241362,"y":64.55095323}},{"type":"Feature","geometry":{"type":"Point","coordinates":[40.535702690000086,64.53187414000006]},"properties":{"city":"Архангельск","cpi_id":2976283,"house":"38","id":142821,"name":"Шарм, центр красоты и здоровья","post":"163069","street":"Северной Двины набережная","x":40.53570269,"y":64.53187414}},{"type":"Feature","geometry":{"type":"Point","coordinates":[40.46949313000006,64.58741053000003]},"properties":{"city":"Архангельск","cpi_id":3017402,"house":"16","id":143280,"name":"Архангельская городская клиническая больница №7, ГБУЗ","post":"163019","street":"Приморская","x":40.46949313,"y":64.58741053}},{"type":"Feature","geometry":{"type":"Point","coordinates":[40.519400770000054,64.55364945000014]},"properties":{"city":"Архангельск","cpi_id":3066671,"house":"3","id":143839,"name":"Первая городская клиническая больница им. Е.Е. Волосевич, ГБУЗ","post":"163001","street":"Гайдара","x":40.51940077,"y":64.55364945}},{"type":"Feature","geometry":{"type":"Point","coordinates":[40.5183543300001,64.54522791000008]},"properties":{"city":"Архангельск","cpi_id":3090639,"house":"106","id":144165,"name":"Псифизис, центр психологической и нейропсихологической помощи","post":"163000","street":"Троицкий проспект","x":40.51835433,"y":64.54522791}},{"type":"Feature","geometry":{"type":"Point","coordinates":[40.56333116000006,64.54156937000006]},"properties":{"city":"Архангельск","cpi_id":3124138,"house":"82","id":144730,"name":"Анеста, специализированная клиника лечения боли","post":"163060","street":"Северодвинская","x":40.56333116,"y":64.54156937}},{"type":"Feature","geometry":{"type":"Point","coordinates":[40.52057151000006,64.55528391000007]},"properties":{"city":"Архангельск","cpi_id":3149623,"house":"6","id":145104,"name":"Здравушка, медицинский центр","post":"163001","street":"Вологодская","x":40.52057151,"y":64.55528391}},{"type":"Feature","geometry":{"type":"Point","coordinates":[40.51407891000012,64.54494949000008]},"properties":{"city":"Архангельск","cpi_id":3219806,"house":"4","id":145849,"name":"НеоДент, стоматологический центр","post":"163000","street":"Карла Маркса","x":40.51407891,"y":64.54494949}},{"type":"Feature","geometry":{"type":"Point","coordinates":[40.53638113000009,64.54886546000012]},"properties":{"city":"Архангельск","cpi_id":20474,"house":"126","id":146425,"name":"Кабинет психолога","post":"163071","street":"Советских Космонавтов проспект","x":40.53638113,"y":64.54886546}},{"type":"Feature","geometry":{"type":"Point","coordinates":[40.58438313000005,64.52809906000006]},"properties":{"city":"Архангельск","cpi_id":106294,"house":"1","id":147485,"name":"Dolce stom, стоматологическая клиника","post":"163002","street":"Вельская","x":40.58438313,"y":64.52809906}},{"type":"Feature","geometry":{"type":"Point","coordinates":[40.52667582000011,64.53086540000001]},"properties":{"city":"Архангельск","cpi_id":136640,"house":"55","id":147985,"name":"Кабинет медицинского психолога Рюминой Елены","post":"163069","street":"Северной Двины набережная","x":40.52667582,"y":64.5308654}},{"type":"Feature","geometry":{"type":"Point","coordinates":[40.602259260000125,64.71051354000011]},"properties":{"city":"Архангельск","cpi_id":295361,"house":"15","id":150041,"name":"Архангельская городская клиническая больница №6, ГБУЗ","post":"163029","street":"Карская","x":40.60225926,"y":64.71051354}},{"type":"Feature","geometry":{"type":"Point","coordinates":[40.572692620000076,64.54561736000007]},"properties":{"city":"Архангельск","cpi_id":377017,"house":"10","id":151288,"name":"Центр паллиативной медицинской помощи, Городская клиническая больница №6","post":"163060","street":"23 Гвардейской Дивизии","x":40.57269262,"y":64.54561736}},{"type":"Feature","geometry":{"type":"Point","coordinates":[40.517880980000015,64.55453248000009]},"properties":{"city":"Архангельск","cpi_id":396012,"house":"1","id":151445,"name":"Северный медицинский клинический центр им. Н.А. Семашко, ФГБУЗ","post":"163001","street":"Гайдара","x":40.51788098,"y":64.55453248}},{"type":"Feature","geometry":{"type":"Point","coordinates":[40.528363750000054,64.5580071600001]},"properties":{"city":"Архангельск","cpi_id":489056,"house":"16/2","id":152748,"name":"Чародеи, стоматологический центр","post":"163001","street":"Суворова","x":40.52836375,"y":64.55800716}},{"type":"Feature","geometry":{"type":"Point","coordinates":[40.523123220000116,64.54732517000011]},"properties":{"city":"Архангельск","cpi_id":510772,"house":"209","id":153068,"name":"Кабинет психолога","post":"163000","street":"Ломоносова проспект","x":40.52312322,"y":64.54732517}},{"type":"Feature","geometry":{"type":"Point","coordinates":[40.53888476000002,64.53666711000012]},"properties":{"city":"Архангельск","cpi_id":578877,"house":"74","id":153904,"name":"Квадрат, центр психологии","post":"163069","street":"Новгородский проспект","x":40.53888476,"y":64.53666711}},{"type":"Feature","geometry":{"type":"Point","coordinates":[40.528292030000095,64.55189480000006]},"properties":{"city":"Архангельск","cpi_id":593123,"house":"24","id":154069,"name":"Центр гигиены и эпидемиологии в Архангельской области, ФБУЗ","post":"163000","street":"Гайдара","x":40.52829203,"y":64.5518948}},{"type":"Feature","geometry":{"type":"Point","coordinates":[40.531891930000015,64.54966054000003]},"properties":{"city":"Архангельск","cpi_id":743663,"house":"18","id":156176,"name":"Жемчужина, стоматологический кабинет","post":"163000","street":"Садовая","x":40.53189193,"y":64.54966054}},{"type":"Feature","geometry":{"type":"Point","coordinates":[40.51159261000008,64.54018039000006]},"properties":{"city":"Архангельск","cpi_id":812364,"house":"49/1","id":157167,"name":"Архангельская городская детская клиническая больница, ГБУЗ","post":"163004","street":"Троицкий проспект","x":40.51159261,"y":64.54018039}},{"type":"Feature","geometry":{"type":"Point","coordinates":[40.66533297000008,64.5146012500001]},"properties":{"city":"Архангельск","cpi_id":875609,"house":"30","id":158050,"name":"Архангельская городская клиническая больница №4, ГБУЗ","post":"163057","street":"Дачная","x":40.66533297,"y":64.51460125}},{"type":"Feature","geometry":{"type":"Point","coordinates":[40.526983260000065,64.56218746000009]},"properties":{"city":"Архангельск","cpi_id":875898,"house":"1/4","id":158063,"name":"Первая городская клиническая больница им. Е.Е. Волосевич, ГБУЗ","post":"163001","street":"Суворова","x":40.52698326,"y":64.56218746}},{"type":"Feature","geometry":{"type":"Point","coordinates":[40.552844610000086,64.53344983000002]},"properties":{"city":"Архангельск","cpi_id":1013659,"house":"32","id":159709,"name":"Кабинет психолога","post":"163002","street":"Новгородский проспект","x":40.55284461,"y":64.53344983}},{"type":"Feature","geometry":{"type":"Point","coordinates":[40.52706584000007,64.5539877200001]},"properties":{"city":"Архангельск","cpi_id":1034298,"house":"253","id":160021,"name":"Биолам, лечебно-диагностический центр","post":"163001","street":"Ломоносова проспект","x":40.52706584,"y":64.55398772}},{"type":"Feature","geometry":{"type":"Point","coordinates":[40.68077293000008,64.51442605000003]},"properties":{"city":"Архангельск","cpi_id":1078920,"house":"32 к2","id":160575,"name":"Северная стоматология, стоматологическая клиника","post":"163062","street":"Воронина В.И.","x":40.68077293,"y":64.51442605}},{"type":"Feature","geometry":{"type":"Point","coordinates":[40.638229550000126,64.50113486000006]},"properties":{"city":"Архангельск","cpi_id":1106531,"house":"6","id":160996,"name":"Архангельская городская клиническая больница №4, ГБУЗ","post":"163011","street":"Трудовая","x":40.63822955,"y":64.50113486}},{"type":"Feature","geometry":{"type":"Point","coordinates":[40.57012534000009,64.54205696000014]},"properties":{"city":"Архангельск","cpi_id":1124763,"house":"4 к3","id":161136,"name":"Шаг, ортопедический салон","post":"163060","street":"Тимме","x":40.57012534,"y":64.54205696}},{"type":"Feature","geometry":{"type":"Point","coordinates":[40.548952010000065,64.54871912000009]},"properties":{"city":"Архангельск","cpi_id":1130891,"house":"6","id":161316,"name":"Архангельская городская детская клиническая больница, ГБУЗ","post":"163071","street":"Приорова проезд","x":40.54895201,"y":64.54871912}},{"type":"Feature","geometry":{"type":"Point","coordinates":[40.55942024000014,64.54852297000014]},"properties":{"city":"Архангельск","cpi_id":1209477,"house":"99","id":162383,"name":"Зубной лекарь, стоматологическая клиника, ООО Архком","post":"163071","street":"Воскресенская","x":40.55942024,"y":64.54852297}},{"type":"Feature","geometry":{"type":"Point","coordinates":[40.51748121000007,64.55265609000008]},"properties":{"city":"Архангельск","cpi_id":1228068,"house":"4 к1","id":162454,"name":"Hestia psychology, психологическая студия","post":"163000","street":"Гайдара","x":40.51748121,"y":64.55265609}},{"type":"Feature","geometry":{"type":"Point","coordinates":[40.5246086500001,64.53878933000004]},"properties":{"city":"Архангельск","cpi_id":1235141,"house":"19","id":162645,"name":"Глория-Дент, стоматологический центр","post":"163000","street":"Карла Либкнехта","x":40.52460865,"y":64.53878933}},{"type":"Feature","geometry":{"type":"Point","coordinates":[40.618630110000055,64.52981007000005]},"properties":{"city":"Архангельск","cpi_id":1237005,"house":"16","id":162701,"name":"Семейная Клиника","post":"163009","street":"Прокопия Галушина","x":40.61863011,"y":64.52981007}},{"type":"Feature","geometry":{"type":"Point","coordinates":[40.557985130000084,64.53251858000004]},"properties":{"city":"Архангельск","cpi_id":1310061,"house":"26","id":163626,"name":"Центр гигиены и эпидемиологии в Архангельской области, ФБУЗ","post":"163002","street":"Новгородский проспект","x":40.55798513,"y":64.53251858}},{"type":"Feature","geometry":{"type":"Point","coordinates":[40.59950082000014,64.52396376000009]},"properties":{"city":"Архангельск","cpi_id":1359022,"house":"38","id":164251,"name":"Casada, магазин массажеров и массажных кресел","post":"163009","street":"Ленинградский проспект","x":40.59950082,"y":64.52396376}},{"type":"Feature","geometry":{"type":"Point","coordinates":[40.54374372000008,64.55907768000003]},"properties":{"city":"Архангельск","cpi_id":1398862,"house":"12 к1","id":164618,"name":"Поликлиника авиаторов, ООО","post":"163072","street":"Самойло","x":40.54374372,"y":64.55907768}},{"type":"Feature","geometry":{"type":"Point","coordinates":[40.530853950000086,64.54106529000013]},"properties":{"city":"Архангельск","cpi_id":1416783,"house":"14","id":164948,"name":"ЛЕНС, офтальмологическая клиника","post":"163000","street":"Воскресенская","x":40.53085395,"y":64.54106529}},{"type":"Feature","geometry":{"type":"Point","coordinates":[40.5197733300001,64.55408666000005]},"properties":{"city":"Архангельск","cpi_id":1479786,"house":"5 к1","id":165740,"name":"Северный медицинский клинический центр им. Н.А. Семашко, ФГБУЗ","post":"163001","street":"Гайдара","x":40.51977333,"y":64.55408666}},{"type":"Feature","geometry":{"type":"Point","coordinates":[40.51360953000006,64.5439355200001]},"properties":{"city":"Архангельск","cpi_id":1522946,"house":"95/2","id":166262,"name":"Кардиоэксперт, медицинский центр","post":"163000","street":"Северной Двины набережная","x":40.51360953,"y":64.54393552}},{"type":"Feature","geometry":{"type":"Point","coordinates":[40.527667650000105,64.55568922000008]},"properties":{"city":"Архангельск","cpi_id":1560466,"house":"261","id":166749,"name":"Гелиос+, стоматологический кабинет","post":"163001","street":"Ломоносова проспект","x":40.52766765,"y":64.55568922}},{"type":"Feature","geometry":{"type":"Point","coordinates":[40.5301558300001,64.53417793000007]},"properties":{"city":"Архангельск","cpi_id":1575477,"house":"10","id":166904,"name":"Стоматологический кабинет","post":"163069","street":"Володарского","x":40.53015583,"y":64.53417793}},{"type":"Feature","geometry":{"type":"Point","coordinates":[40.5568195300001,64.56341923000008]},"properties":{"city":"Архангельск","cpi_id":1581939,"house":"145 к1","id":167076,"name":"Архангельский клинический онкологический диспансер, ГБУЗ","post":"163045","street":"Обводный канал проспект","x":40.55681953,"y":64.56341923}},{"type":"Feature","geometry":{"type":"Point","coordinates":[40.684359730000075,64.50787248000015]},"properties":{"city":"Архангельск","cpi_id":1585569,"house":"24","id":167176,"name":"Архангельский госпиталь для ветеранов войн, ГБУЗ","post":"163057","street":"Воронина В.И.","x":40.68435973,"y":64.50787248}},{"type":"Feature","geometry":{"type":"Point","coordinates":[40.53551982000009,64.55861702000006]},"properties":{"city":"Архангельск","cpi_id":1601682,"house":"37","id":167264,"name":"Женева, ООО, медицинский центр","post":"163001","street":"Карельская","x":40.53551982,"y":64.55861702}},{"type":"Feature","geometry":{"type":"Point","coordinates":[40.533828600000106,64.54309754000008]},"properties":{"city":"Архангельск","cpi_id":1623770,"house":"59","id":167528,"name":"Центр биомеханики","post":"163046","street":"Воскресенская","x":40.5338286,"y":64.54309754}},{"type":"Feature","geometry":{"type":"Point","coordinates":[40.52878571000015,64.56291616000006]},"properties":{"city":"Архангельск","cpi_id":1725393,"house":"4","id":168870,"name":"Первая городская клиническая больница им. Е.Е. Волосевич, ГБУЗ","post":"163001","street":"Комсомольская","x":40.52878571,"y":64.56291616}},{"type":"Feature","geometry":{"type":"Point","coordinates":[40.50412869000011,64.57928692000013]},"properties":{"city":"Архангельск","cpi_id":1749436,"house":"37 к1","id":169168,"name":"Паритет-Дент, ООО, стоматологический центр","post":"163020","street":"Никольский проспект","x":40.50412869,"y":64.57928692}},{"type":"Feature","geometry":{"type":"Point","coordinates":[40.514000750000044,64.54213724000007]},"properties":{"city":"Архангельск","cpi_id":1749487,"house":"51","id":169171,"name":"Университетский медицинский центр, СГМУ","post":"163000","street":"Троицкий проспект","x":40.51400075,"y":64.54213724}},{"type":"Feature","geometry":{"type":"Point","coordinates":[40.53655473000008,64.5661738200001]},"properties":{"city":"Архангельск","cpi_id":1755738,"house":"1","id":169362,"name":"Забота, медицинский центр","post":"163045","street":"Гагарина","x":40.53655473,"y":64.56617382}},{"type":"Feature","geometry":{"type":"Point","coordinates":[40.560530140000026,64.54744961000011]},"properties":{"city":"Архангельск","cpi_id":1785373,"house":"112","id":169636,"name":"Архангельская областная клиническая стоматологическая поликлиника, ГАУЗ","post":"163060","street":"Воскресенская","x":40.56053014,"y":64.54744961}},{"type":"Feature","geometry":{"type":"Point","coordinates":[40.53551982000009,64.55861702000006]},"properties":{"city":"Архангельск","cpi_id":1825488,"house":"37","id":170201,"name":"Улыбнись, стоматологический кабинет","post":"163001","street":"Карельская","x":40.53551982,"y":64.55861702}},{"type":"Feature","geometry":{"type":"Point","coordinates":[40.43171145000012,64.53860111000006]},"properties":{"city":"Архангельск","cpi_id":1913958,"house":"85","id":171390,"name":"Архангельская городская детская клиническая больница, ГБУЗ","post":"163017","street":"Кегостровская","x":40.43171145,"y":64.53860111}},{"type":"Feature","geometry":{"type":"Point","coordinates":[40.57473270000011,64.54707510000003]},"properties":{"city":"Архангельск","cpi_id":1936048,"house":"7 к4","id":171629,"name":"Академия здоровья, медицинский центр","post":"163051","street":"Дзержинского проспект","x":40.5747327,"y":64.5470751}},{"type":"Feature","geometry":{"type":"Point","coordinates":[40.533983670000076,64.53250506000009]},"properties":{"city":"Архангельск","cpi_id":1945549,"house":"7 к1","id":171895,"name":"Мой Доктор, медицинский центр, ООО Здоровая семья","post":"","street":"Чумбарова-Лучинского проспект","x":40.53398367,"y":64.53250506}},{"type":"Feature","geometry":{"type":"Point","coordinates":[40.55604760000012,64.53297257000008]},"properties":{"city":"Архангельск","cpi_id":2136252,"house":"28","id":174320,"name":"Клинико-диагностический центр специализированной помощи, Архангельский клинический противотуберкулезный диспансер","post":"163002","street":"Новгородский проспект","x":40.5560476,"y":64.53297257}},{"type":"Feature","geometry":{"type":"Point","coordinates":[40.527667650000105,64.55568922000008]},"properties":{"city":"Архангельск","cpi_id":2157501,"house":"261","id":174575,"name":"Школа Маяк, семейный клуб","post":"163001","street":"Ломоносова проспект","x":40.52766765,"y":64.55568922}},{"type":"Feature","geometry":{"type":"Point","coordinates":[40.51589440000008,64.5469954300001]},"properties":{"city":"Архангельск","cpi_id":2214523,"house":"6","id":175370,"name":"Центр лучевой диагностики, ООО","post":"163000","street":"Попова","x":40.5158944,"y":64.54699543}},{"type":"Feature","geometry":{"type":"Point","coordinates":[40.543385110000024,64.56438032000005]},"properties":{"city":"Архангельск","cpi_id":2263260,"house":"311","id":176022,"name":"Архангельская станция переливания крови","post":"163045","street":"Ломоносова проспект","x":40.54338511,"y":64.56438032}},{"type":"Feature","geometry":{"type":"Point","coordinates":[40.523397760000144,64.53661339000013]},"properties":{"city":"Архангельск","cpi_id":2287232,"house":"41","id":176331,"name":"Зубная Фея, стоматологическая клиника","post":"","street":"Чумбарова-Лучинского проспект","x":40.52339776,"y":64.53661339}},{"type":"Feature","geometry":{"type":"Point","coordinates":[40.5183543300001,64.54522791000008]},"properties":{"city":"Архангельск","cpi_id":2333605,"house":"106","id":176896,"name":"Arkhangelsk_smileroom","post":"163000","street":"Троицкий проспект","x":40.51835433,"y":64.54522791}},{"type":"Feature","geometry":{"type":"Point","coordinates":[40.50660475000011,64.58224530000007]},"properties":{"city":"Архангельск","cpi_id":2364855,"house":"12 к1","id":177371,"name":"Кабинет психолога","post":"163020","street":"Красных Партизан","x":40.50660475,"y":64.5822453}},{"type":"Feature","geometry":{"type":"Point","coordinates":[40.52066430000009,64.55457157000012]},"properties":{"city":"Архангельск","cpi_id":2418889,"house":"113","id":177980,"name":"Северный медицинский клинический центр им. Н.А. Семашко, ФГБУЗ","post":"163001","street":"Троицкий проспект","x":40.5206643,"y":64.55457157}},{"type":"Feature","geometry":{"type":"Point","coordinates":[40.55692168000013,64.53560131000012]},"properties":{"city":"Архангельск","cpi_id":2428645,"house":"9","id":178262,"name":"Архангельская клиническая офтальмологическая больница","post":"163002","street":"Обводный канал проспект","x":40.55692168,"y":64.53560131}},{"type":"Feature","geometry":{"type":"Point","coordinates":[40.53722098000007,64.53391592000011]},"properties":{"city":"Архангельск","cpi_id":2450911,"house":"83","id":178481,"name":"АС-клиника, ООО","post":"","street":"Ломоносова проспект","x":40.53722098,"y":64.53391592}},{"type":"Feature","geometry":{"type":"Point","coordinates":[40.52157533000012,64.54503126]},"properties":{"city":"Архангельск","cpi_id":2456528,"house":"181","id":178640,"name":"Дент-Мастер, ООО, стоматологическая клиника","post":"163000","street":"Ломоносова проспект","x":40.52157533,"y":64.54503126}},{"type":"Feature","geometry":{"type":"Point","coordinates":[40.535816880000084,64.54061623000008]},"properties":{"city":"Архангельск","cpi_id":2539774,"house":"60 к1","id":179699,"name":"Двина-Стом Плюс, ООО, стоматологическая клиника","post":"163046","street":"Поморская","x":40.53581688,"y":64.54061623}},{"type":"Feature","geometry":{"type":"Point","coordinates":[40.60066026000009,64.47703684000008]},"properties":{"city":"Архангельск","cpi_id":2567176,"house":"11","id":179898,"name":"Улыбка Севера, стоматология","post":"163035","street":"Зеньковича","x":40.60066026,"y":64.47703684}},{"type":"Feature","geometry":{"type":"Point","coordinates":[40.54898409000002,64.53263887]},"properties":{"city":"Архангельск","cpi_id":2660322,"house":"58/1","id":181145,"name":"Рефлекс, стоматологический кабинет","post":"","street":"Ломоносова проспект","x":40.54898409,"y":64.53263887}},{"type":"Feature","geometry":{"type":"Point","coordinates":[40.524449210000114,64.5608384700001]},"properties":{"city":"Архангельск","cpi_id":2739071,"house":"3","id":182308,"name":"Первая городская клиническая больница им. Е.Е. Волосевич, ГБУЗ","post":"163001","street":"Суворова","x":40.52444921,"y":64.56083847}},{"type":"Feature","geometry":{"type":"Point","coordinates":[40.54001571000003,64.5589217100001]},"properties":{"city":"Архангельск","cpi_id":2739776,"house":"47","id":182328,"name":"Точка зрения, ООО, офтальмологический центр","post":"163072","street":"Комсомольская","x":40.54001571,"y":64.55892171}},{"type":"Feature","geometry":{"type":"Point","coordinates":[40.51819492000009,64.55547274000008]},"properties":{"city":"Архангельск","cpi_id":2820376,"house":"2","id":183349,"name":"Северный медицинский клинический центр им. Н.А. Семашко, ФГБУЗ","post":"163001","street":"Вологодская","x":40.51819492,"y":64.55547274}},{"type":"Feature","geometry":{"type":"Point","coordinates":[40.52038002000013,64.55274569000005]},"properties":{"city":"Архангельск","cpi_id":2911147,"house":"99","id":184572,"name":"Архангельская городская клиническая поликлиника №1, ГБУЗ","post":"163000","street":"Троицкий проспект","x":40.52038002,"y":64.55274569}},{"type":"Feature","geometry":{"type":"Point","coordinates":[40.53888476000002,64.53666711000012]},"properties":{"city":"Архангельск","cpi_id":3005829,"house":"74","id":185773,"name":"Кабинет ортопеда-травматолога","post":"163069","street":"Новгородский проспект","x":40.53888476,"y":64.53666711}},{"type":"Feature","geometry":{"type":"Point","coordinates":[40.51539717000004,64.54451590000009]},"properties":{"city":"Архангельск","cpi_id":3205555,"house":"65","id":188239,"name":"Центр медтехники, магазин","post":"163000","street":"Троицкий проспект","x":40.51539717,"y":64.5445159}},{"type":"Feature","geometry":{"type":"Point","coordinates":[40.344327920000076,64.52941280000005]},"properties":{"city":"Архангельск","cpi_id":3253954,"house":"2","id":188869,"name":"Первая городская клиническая больница им. Е.Е. Волосевич, ГБУЗ","post":"163044","street":"Красина","x":40.34432792,"y":64.5294128}},{"type":"Feature","geometry":{"type":"Point","coordinates":[40.652684970000124,64.45897036000011]},"properties":{"city":"Архангельск","cpi_id":3260025,"house":"2","id":189046,"name":"Архангельская городская клиническая больница №4, ГБУЗ","post":"163038","street":"Штурманская","x":40.65268497,"y":64.45897036}},{"type":"Feature","geometry":{"type":"Point","coordinates":[40.52793793000011,64.5573451600001]},"properties":{"city":"Архангельск","cpi_id":1336693,"house":"269","id":191095,"name":"Центр поддержки молодой семьи, ГАУ","post":"163001","street":"Ломоносова проспект","x":40.52793793,"y":64.55734516}},{"type":"Feature","geometry":{"type":"Point","coordinates":[40.5292952900001,64.55937083000006]},"properties":{"city":"Архангельск","cpi_id":1759443,"house":"11 к2","id":191760,"name":"Глобо-стом","post":"163001","street":"Суворова","x":40.52929529,"y":64.55937083}},{"type":"Feature","geometry":{"type":"Point","coordinates":[40.538017270000076,64.56380075000006]},"properties":{"city":"Архангельск","cpi_id":1970867,"house":"8","id":192050,"name":"Вита Дент, стоматологическая клиника","post":"163045","street":"Гагарина","x":40.53801727,"y":64.56380075}},{"type":"Feature","geometry":{"type":"Point","coordinates":[40.52728015000006,64.55981893000009]},"properties":{"city":"Архангельск","cpi_id":2220470,"house":"9","id":192439,"name":"Надежда, кризисный центр","post":"163001","street":"Суворова","x":40.52728015,"y":64.55981893}},{"type":"Feature","geometry":{"type":"Point","coordinates":[40.503897070000086,64.67672775000004]},"properties":{"city":"Архангельск","cpi_id":2244704,"house":"67","id":192470,"name":"Архангельская городская клиническая больница №6, ГБУЗ","post":"163026","street":"Победы","x":40.50389707,"y":64.67672775}},{"type":"Feature","geometry":{"type":"Point","coordinates":[40.53881962000007,64.53840847000006]},"properties":{"city":"Архангельск","cpi_id":2667391,"house":"57","id":193155,"name":"Зубной, стоматологический кабинет, ООО ТехноДент","post":"163046","street":"Советских Космонавтов проспект","x":40.53881962,"y":64.53840847}},{"type":"Feature","geometry":{"type":"Point","coordinates":[40.54374372000008,64.55907768000003]},"properties":{"city":"Архангельск","cpi_id":3039121,"house":"12 к1","id":193695,"name":"Медлайф, медицинский центр","post":"163072","street":"Самойло","x":40.54374372,"y":64.55907768}},{"type":"Feature","geometry":{"type":"Point","coordinates":[40.5795896500001,64.60283105000009]},"properties":{"city":"Архангельск","cpi_id":1565335,"house":"43","id":195013,"name":"Надежда, центр психолого-медико-социального сопровождения для детей","post":"163059","street":"Ильича","x":40.57958965,"y":64.60283105}},{"type":"Feature","geometry":{"type":"Point","coordinates":[40.53888476000002,64.53666711000012]},"properties":{"city":"Архангельск","cpi_id":2437041,"house":"74","id":195382,"name":"Улыбка, стоматологическая дизайн-студия","post":"163069","street":"Новгородский проспект","x":40.53888476,"y":64.53666711}}],"type":"FeatureCollection"}