{"features":[{"type":"Feature","geometry":{"type":"Point","coordinates":[40.64360195000011,64.6254005700001]},"properties":{"city":"Талаги (Приморский район)","cpi_id":1183114,"house":"5/6","id":37621,"name":"Архангельская клиническая психиатрическая больница, ГБУЗ","post":"163530","street":"Талаги посёлок","x":40.64360195,"y":64.62540057}},{"type":"Feature","geometry":{"type":"Point","coordinates":[40.64376460000008,64.6248105000001]},"properties":{"city":"Талаги (Приморский район)","cpi_id":1574480,"house":"5/4","id":50109,"name":"Архангельская клиническая психиатрическая больница, ГБУЗ","post":"163530","street":"Талаги посёлок","x":40.6437646,"y":64.6248105}},{"type":"Feature","geometry":{"type":"Point","coordinates":[40.64392344000005,64.62423357000007]},"properties":{"city":"Талаги (Приморский район)","cpi_id":2129210,"house":"5/3","id":131739,"name":"Архангельская клиническая психиатрическая больница, ГБУЗ","post":"163530","street":"Талаги посёлок","x":40.64392344,"y":64.62423357}},{"type":"Feature","geometry":{"type":"Point","coordinates":[40.64343211000004,64.62601719000006]},"properties":{"city":"Талаги (Приморский район)","cpi_id":2460697,"house":"5","id":135883,"name":"Архангельская клиническая психиатрическая больница, ГБУЗ","post":"163530","street":"Талаги посёлок","x":40.64343211,"y":64.62601719}}],"type":"FeatureCollection"}