{"features":[{"type":"Feature","geometry":{"type":"Point","coordinates":[40.45476627000012,64.40988986000004]},"properties":{"city":"Васьково (Приморский район)","house":"51","id":37524,"name":"Приморская детская школа искусств","post":"163512","street":"Васьково","x":40.45476627,"y":64.40988986}},{"type":"Feature","geometry":{"type":"Point","coordinates":[40.45476627000012,64.40988986000004]},"properties":{"city":"Васьково (Приморский район)","house":"51","id":101717,"name":"Васьковская средняя общеобразовательная школа с дошкольным отделением","post":"163512","street":"Васьково","x":40.45476627,"y":64.40988986}},{"type":"Feature","geometry":{"type":"Point","coordinates":[40.46355900000012,64.41224020000006]},"properties":{"city":"Васьково (Приморский район)","house":"78","id":115075,"name":"Васьковская средняя общеобразовательная школа с дошкольным отделением","post":"163512","street":"Васьково","x":40.463559,"y":64.4122402}},{"type":"Feature","geometry":{"type":"Point","coordinates":[40.45322339000008,64.41245412000006]},"properties":{"city":"Васьково (Приморский район)","house":"50","id":178135,"name":"Васьковская средняя общеобразовательная школа с дошкольным отделением","post":"163512","street":"Васьково","x":40.45322339,"y":64.41245412}}],"type":"FeatureCollection"}