{"features":[{"type":"Feature","geometry":{"type":"Point","coordinates":[40.52576143000008,64.55726367000011]},"properties":{"city":"Архангельск","house":"7 к1","id":275,"name":"Средняя школа №23 им. А.С. Пушкина","post":"163001","street":"Федота Шубина","x":40.52576143,"y":64.55726367}},{"type":"Feature","geometry":{"type":"Point","coordinates":[40.53533598000014,64.55931417000005]},"properties":{"city":"Архангельск","house":"270","id":1874,"name":"Архангельский областной институт открытого образования, ГАОУ","post":"163001","street":"Ломоносова проспект","x":40.53533598,"y":64.55931417}},{"type":"Feature","geometry":{"type":"Point","coordinates":[40.61717154000011,64.43169736000004]},"properties":{"city":"Архангельск","house":"3","id":1912,"name":"Средняя школа №34 им. А.И. Клепача","post":"163039","street":"Клепача","x":40.61717154,"y":64.43169736}},{"type":"Feature","geometry":{"type":"Point","coordinates":[40.574548130000046,64.53944863000005]},"properties":{"city":"Архангельск","house":"68 к3","id":3241,"name":"Центр инновационного обучения, САФУ им. М.В. Ломоносова","post":"163060","street":"Урицкого","x":40.57454813,"y":64.53944863}},{"type":"Feature","geometry":{"type":"Point","coordinates":[40.54312629000002,64.55069924000001]},"properties":{"city":"Архангельск","house":"44/1","id":3588,"name":"Oк, студия английского языка","post":"163071","street":"Гайдара","x":40.54312629,"y":64.55069924}},{"type":"Feature","geometry":{"type":"Point","coordinates":[40.567029310000116,64.53779532000003]},"properties":{"city":"Архангельск","house":"47","id":4437,"name":"Архангельское городское техническое учреждение","post":"163060","street":"Урицкого","x":40.56702931,"y":64.53779532}},{"type":"Feature","geometry":{"type":"Point","coordinates":[40.5453866600001,64.52928518000007]},"properties":{"city":"Архангельск","house":"22","id":4935,"name":"Северный (Арктический) федеральный университет им. М.В. Ломоносова, ФГАОУ ВО","post":"163069","street":"Северной Двины набережная","x":40.54538666,"y":64.52928518}},{"type":"Feature","geometry":{"type":"Point","coordinates":[40.675563730000114,64.51823280000005]},"properties":{"city":"Архангельск","house":"25","id":5244,"name":"Prima №1, вокальная школа","post":"","street":"Папанина","x":40.67556373,"y":64.5182328}},{"type":"Feature","geometry":{"type":"Point","coordinates":[40.51748121000007,64.55265609000008]},"properties":{"city":"Архангельск","house":"4 к1","id":7610,"name":"Академия-центр, ООО, образовательный центр","post":"163000","street":"Гайдара","x":40.51748121,"y":64.55265609}},{"type":"Feature","geometry":{"type":"Point","coordinates":[40.552844610000086,64.53344983000002]},"properties":{"city":"Архангельск","house":"32","id":8074,"name":"Юниоркод, школа программирования","post":"163002","street":"Новгородский проспект","x":40.55284461,"y":64.53344983}},{"type":"Feature","geometry":{"type":"Point","coordinates":[40.56053858000012,64.5513808500001]},"properties":{"city":"Архангельск","house":"18 к2","id":8687,"name":"Средняя школа №5 с дошкольным отделением","post":"163051","street":"Тимме","x":40.56053858,"y":64.55138085}},{"type":"Feature","geometry":{"type":"Point","coordinates":[40.552844610000086,64.53344983000002]},"properties":{"city":"Архангельск","house":"32","id":8819,"name":"Fashion Kids Models, детское модельное агентство","post":"163002","street":"Новгородский проспект","x":40.55284461,"y":64.53344983}},{"type":"Feature","geometry":{"type":"Point","coordinates":[40.560955110000066,64.53220622000009]},"properties":{"city":"Архангельск","house":"17","id":9673,"name":"Инженер, ООО, центр обучения","post":"163002","street":"Урицкого","x":40.56095511,"y":64.53220622}},{"type":"Feature","geometry":{"type":"Point","coordinates":[40.53310634000011,64.53317954000005]},"properties":{"city":"Архангельск","house":"11 к1","id":9695,"name":"Академия, частная школа","post":"","street":"Чумбарова-Лучинского проспект","x":40.53310634,"y":64.53317954}},{"type":"Feature","geometry":{"type":"Point","coordinates":[40.52670680000014,64.53417250000007]},"properties":{"city":"Архангельск","house":"20","id":9873,"name":"Mary Kay, косметическая компания","post":"163069","street":"Троицкий проспект","x":40.5267068,"y":64.5341725}},{"type":"Feature","geometry":{"type":"Point","coordinates":[40.552844610000086,64.53344983000002]},"properties":{"city":"Архангельск","house":"32","id":11025,"name":"FAMILY LOFT, семейная студия","post":"163002","street":"Новгородский проспект","x":40.55284461,"y":64.53344983}},{"type":"Feature","geometry":{"type":"Point","coordinates":[40.60016339000008,64.47830018000005]},"properties":{"city":"Архангельск","house":"6 к1","id":11170,"name":"Детская школа искусств №48, МБУ ДО","post":"163035","street":"Нахимова","x":40.60016339,"y":64.47830018}},{"type":"Feature","geometry":{"type":"Point","coordinates":[40.52670680000014,64.53417250000007]},"properties":{"city":"Архангельск","house":"20","id":11914,"name":"KIBERone, международная кибершкола","post":"163069","street":"Троицкий проспект","x":40.5267068,"y":64.5341725}},{"type":"Feature","geometry":{"type":"Point","coordinates":[40.51707215000009,64.55160614000008]},"properties":{"city":"Архангельск","house":"2","id":14158,"name":"Арктический морской институт им. В.И. Воронина, ФГБОУ ВО Государственный университет морского и речного флота им. адмирала С.О. Макарова","post":"163000","street":"Садовая","x":40.51707215,"y":64.55160614}},{"type":"Feature","geometry":{"type":"Point","coordinates":[40.56071153000004,64.5284792300001]},"properties":{"city":"Архангельск","house":"11","id":15254,"name":"Ксения, университетская гимназия с детским садом","post":"163002","street":"Ломоносова проспект","x":40.56071153,"y":64.52847923}},{"type":"Feature","geometry":{"type":"Point","coordinates":[40.55226002000008,64.52768236]},"properties":{"city":"Архангельск","house":"14","id":15328,"name":"Северный (Арктический) федеральный университет им. М.В. Ломоносова, ФГАОУ ВО","post":"163002","street":"Северной Двины набережная","x":40.55226002,"y":64.52768236}},{"type":"Feature","geometry":{"type":"Point","coordinates":[40.66846356000014,64.52021024000011]},"properties":{"city":"Архангельск","house":"57 к3","id":15933,"name":"Архангельский торгово-экономический колледж, ГАПОУ","post":"163015","street":"Дачная","x":40.66846356,"y":64.52021024}},{"type":"Feature","geometry":{"type":"Point","coordinates":[40.55108904000008,64.53527489000007]},"properties":{"city":"Архангельск","house":"34/2","id":15992,"name":"Северный (Арктический) федеральный университет им. М.В. Ломоносова, ФГАОУ ВО","post":"163046","street":"Новгородский проспект","x":40.55108904,"y":64.53527489}},{"type":"Feature","geometry":{"type":"Point","coordinates":[40.53854429000009,64.56256177000012]},"properties":{"city":"Архангельск","house":"293","id":15997,"name":"Архангельский финансово-промышленный колледж","post":"163045","street":"Ломоносова проспект","x":40.53854429,"y":64.56256177}},{"type":"Feature","geometry":{"type":"Point","coordinates":[40.565392450000076,64.52969700000011]},"properties":{"city":"Архангельск","house":"1","id":16415,"name":"Региональный ресурсный центр инклюзивного образования, САФУ им. М.В. Ломоносова","post":"163002","street":"Смольный Буян","x":40.56539245,"y":64.529697}},{"type":"Feature","geometry":{"type":"Point","coordinates":[40.56898257000011,64.53415338000013]},"properties":{"city":"Архангельск","house":"1 к3","id":17234,"name":"Эмоция, танцевальная студия","post":"163002","street":"Обводный канал проспект","x":40.56898257,"y":64.53415338}},{"type":"Feature","geometry":{"type":"Point","coordinates":[40.513140950000114,64.57440602000011]},"properties":{"city":"Архангельск","house":"3","id":17939,"name":"Средняя общеобразовательная школа №50 им. дважды Героя Советского Союза А.О. Шабалина","post":"163020","street":"Краснофлотская","x":40.51314095,"y":64.57440602}},{"type":"Feature","geometry":{"type":"Point","coordinates":[40.55450104000005,64.53131515000013]},"properties":{"city":"Архангельск","house":"32","id":18168,"name":"Екатерининский лицей, школа современного образования","post":"163002","street":"Ломоносова проспект","x":40.55450104,"y":64.53131515}},{"type":"Feature","geometry":{"type":"Point","coordinates":[40.67247648000017,64.5091568200001]},"properties":{"city":"Архангельск","house":"37 к4","id":19225,"name":"Средняя школа №26 им. В.Д. Никитова","post":"163062","street":"Воронина В.И.","x":40.67247648,"y":64.50915682}},{"type":"Feature","geometry":{"type":"Point","coordinates":[40.552844610000086,64.53344983000002]},"properties":{"city":"Архангельск","house":"32","id":20072,"name":"Betaflash, центр подготовки верхолазов","post":"163002","street":"Новгородский проспект","x":40.55284461,"y":64.53344983}},{"type":"Feature","geometry":{"type":"Point","coordinates":[40.534907670000116,64.55121100000008]},"properties":{"city":"Архангельск","house":"153","id":20825,"name":"Средняя школа №11, МБОУ","post":"163000","street":"Советских Космонавтов проспект","x":40.53490767,"y":64.551211}},{"type":"Feature","geometry":{"type":"Point","coordinates":[40.60685000000008,64.52851834000008]},"properties":{"city":"Архангельск","house":"14","id":21150,"name":"Средняя школа №35 им. героя Советского Союза П.И. Галушина","post":"163009","street":"Фёдора Абрамова","x":40.60685,"y":64.52851834}},{"type":"Feature","geometry":{"type":"Point","coordinates":[40.47074809000002,64.58374478000006]},"properties":{"city":"Архангельск","house":"13","id":21574,"name":"Основная общеобразовательная школа №48 с дошкольным отделением","post":"163019","street":"Приморская","x":40.47074809,"y":64.58374478}},{"type":"Feature","geometry":{"type":"Point","coordinates":[40.55865363000006,64.5304201400001]},"properties":{"city":"Архангельск","house":"9","id":22963,"name":"Гимназия №21 им. И.А. Бродского, МБОУ","post":"163002","street":"Урицкого","x":40.55865363,"y":64.53042014}},{"type":"Feature","geometry":{"type":"Point","coordinates":[40.52674603000005,64.55346247000004]},"properties":{"city":"Архангельск","house":"249","id":23912,"name":"Федеральный исследовательский центр комплексного изучения Арктики им. академика Н.П. Лаверова РАН, ФГБНУ","post":"163001","street":"Ломоносова проспект","x":40.52674603,"y":64.55346247}},{"type":"Feature","geometry":{"type":"Point","coordinates":[40.54630219000008,64.53290578000008]},"properties":{"city":"Архангельск","house":"21","id":24186,"name":"Наставники, программа молодежного предпринимательства","post":"163046","street":"Розы Люксембург","x":40.54630219,"y":64.53290578}},{"type":"Feature","geometry":{"type":"Point","coordinates":[40.504420770000095,64.57797633000014]},"properties":{"city":"Архангельск","house":"8","id":24630,"name":"Соломбальская специальная коррекционная общеобразовательная школа-интернат","post":"163020","street":"Маяковского","x":40.50442077,"y":64.57797633}},{"type":"Feature","geometry":{"type":"Point","coordinates":[40.554281500000066,64.5578601500001]},"properties":{"city":"Архангельск","house":"14","id":24991,"name":"Средняя школа №5 с дошкольным отделением","post":"163045","street":"Бадигина проезд","x":40.5542815,"y":64.55786015}},{"type":"Feature","geometry":{"type":"Point","coordinates":[40.52687011000009,64.53188361000014]},"properties":{"city":"Архангельск","house":"54 к1","id":25007,"name":"Северный (Арктический) федеральный университет им. М.В. Ломоносова, ФГАОУ ВО","post":"163069","street":"Северной Двины набережная","x":40.52687011,"y":64.53188361}},{"type":"Feature","geometry":{"type":"Point","coordinates":[40.45998320000009,64.62600994000013]},"properties":{"city":"Архангельск","house":"6","id":26215,"name":"Средняя общеобразовательная школа №54 с дошкольным отделением","post":"163018","street":"Луганская","x":40.4599832,"y":64.62600994}},{"type":"Feature","geometry":{"type":"Point","coordinates":[40.51687658000002,64.5426706100001]},"properties":{"city":"Архангельск","house":"94","id":26277,"name":"Центр исторических ремесел","post":"163000","street":"Троицкий проспект","x":40.51687658,"y":64.54267061}},{"type":"Feature","geometry":{"type":"Point","coordinates":[40.554764920000075,64.54847322000006]},"properties":{"city":"Архангельск","house":"95/3","id":26856,"name":"Средняя общеобразовательная школа №10","post":"163071","street":"Воскресенская","x":40.55476492,"y":64.54847322}},{"type":"Feature","geometry":{"type":"Point","coordinates":[40.569590940000175,64.53809360000008]},"properties":{"city":"Архангельск","house":"56","id":27561,"name":"Северный (Арктический) федеральный университет им. М.В. Ломоносова, ФГАОУ ВО","post":"163060/1","street":"Урицкого","x":40.56959094,"y":64.5380936}},{"type":"Feature","geometry":{"type":"Point","coordinates":[40.50493660000006,64.58862847000007]},"properties":{"city":"Архангельск","house":"152","id":27593,"name":"Средняя школа № 49 им. В.Ф. Чуданова, г. Архангельск","post":"163020","street":"Никольский проспект","x":40.5049366,"y":64.58862847}},{"type":"Feature","geometry":{"type":"Point","coordinates":[40.543165620000046,64.52952423000006]},"properties":{"city":"Архангельск","house":"25","id":28030,"name":"Архангельский государственный лицей им. М.В. Ломоносова","post":"163069","street":"Северной Двины набережная","x":40.54316562,"y":64.52952423}},{"type":"Feature","geometry":{"type":"Point","coordinates":[40.563660780000085,64.53042427000005]},"properties":{"city":"Архангельск","house":"6","id":28509,"name":"Северный (Арктический) федеральный университет им. М.В. Ломоносова, ФГАОУ ВО","post":"163002","street":"Ломоносова проспект","x":40.56366078,"y":64.53042427}},{"type":"Feature","geometry":{"type":"Point","coordinates":[40.68982401000014,64.50495556000004]},"properties":{"city":"Архангельск","house":"10","id":29764,"name":"Средняя школа №30, МБОУ","post":"163030","street":"Квартальная","x":40.68982401,"y":64.50495556}},{"type":"Feature","geometry":{"type":"Point","coordinates":[40.524264000000116,64.53484473000003]},"properties":{"city":"Архангельск","house":"5","id":30322,"name":"Mary Kay, обучающий центр","post":"163069","street":"Поморская","x":40.524264,"y":64.53484473}},{"type":"Feature","geometry":{"type":"Point","coordinates":[40.581253700000076,64.59870456000004]},"properties":{"city":"Архангельск","house":"6","id":30813,"name":"Средняя школа №51 им. Ф.А. Абрамова","post":"163059","street":"Пушкинская","x":40.5812537,"y":64.59870456}},{"type":"Feature","geometry":{"type":"Point","coordinates":[40.519788530000085,64.55107035000009]},"properties":{"city":"Архангельск","house":"95","id":32354,"name":"Архангельский колледж культуры и искусства, ГБПОУ","post":"163000","street":"Троицкий проспект","x":40.51978853,"y":64.55107035}},{"type":"Feature","geometry":{"type":"Point","coordinates":[40.52430916000007,64.53356563000008]},"properties":{"city":"Архангельск","house":"2","id":32450,"name":"Профессионал, учебно-консультационный центр","post":"163069","street":"Поморская","x":40.52430916,"y":64.53356563}},{"type":"Feature","geometry":{"type":"Point","coordinates":[40.52797583000006,64.53717606000009]},"properties":{"city":"Архангельск","house":"15","id":32922,"name":"Azalea, студия","post":"163069","street":"Поморская","x":40.52797583,"y":64.53717606}},{"type":"Feature","geometry":{"type":"Point","coordinates":[40.565392450000076,64.52969700000011]},"properties":{"city":"Архангельск","house":"1","id":34859,"name":"Северный (Арктический) федеральный университет им. М.В. Ломоносова, ФГАОУ ВО","post":"163002","street":"Смольный Буян","x":40.56539245,"y":64.529697}},{"type":"Feature","geometry":{"type":"Point","coordinates":[40.68015762000007,64.50651604000005]},"properties":{"city":"Архангельск","house":"27","id":34907,"name":"Средняя школа №28, МБОУ","post":"163057","street":"Воронина В.И.","x":40.68015762,"y":64.50651604}},{"type":"Feature","geometry":{"type":"Point","coordinates":[40.52368402000009,64.54808982000003]},"properties":{"city":"Архангельск","house":"211","id":35280,"name":"Архангельский музыкальный колледж","post":"163000","street":"Ломоносова проспект","x":40.52368402,"y":64.54808982}},{"type":"Feature","geometry":{"type":"Point","coordinates":[40.59319933000009,64.52648336000003]},"properties":{"city":"Архангельск","house":"61","id":35334,"name":"Ксения, университетская гимназия с детским садом","post":"163009","street":"Ленинградский проспект","x":40.59319933,"y":64.52648336}},{"type":"Feature","geometry":{"type":"Point","coordinates":[40.7067604900001,64.49027830000007]},"properties":{"city":"Архангельск","house":"4","id":35970,"name":"Средняя школа №27","post":"163016","street":"Циолковского","x":40.70676049,"y":64.4902783}},{"type":"Feature","geometry":{"type":"Point","coordinates":[40.61931265000008,64.53245917000001]},"properties":{"city":"Архангельск","house":"49","id":36969,"name":"Студия обучения игре на гитаре","post":"163065","street":"Московский проспект","x":40.61931265,"y":64.53245917}},{"type":"Feature","geometry":{"type":"Point","coordinates":[40.54095895000007,64.53633085000007]},"properties":{"city":"Архангельск","house":"66","id":37033,"name":"Архангельский областной институт открытого образования, ГАОУ","post":"163046","street":"Новгородский проспект","x":40.54095895,"y":64.53633085}},{"type":"Feature","geometry":{"type":"Point","coordinates":[40.54952753000007,64.5635156700001]},"properties":{"city":"Архангельск","house":"2 к3","id":38135,"name":"Лигатура, межкафедральное студенческое хирургическое объединение, СГМУ","post":"163045","street":"Сибиряковцев проезд","x":40.54952753,"y":64.56351567}},{"type":"Feature","geometry":{"type":"Point","coordinates":[40.55863997000012,64.54905413000009]},"properties":{"city":"Архангельск","house":"17 к2","id":38171,"name":"English Club, кабинет английского языка","post":"163071","street":"Тимме","x":40.55863997,"y":64.54905413}},{"type":"Feature","geometry":{"type":"Point","coordinates":[40.51622744000012,64.54473722000003]},"properties":{"city":"Архангельск","house":"67","id":39646,"name":"Школа скорочтения Шамиля Ахмадуллина","post":"163000","street":"Троицкий проспект","x":40.51622744,"y":64.54473722}},{"type":"Feature","geometry":{"type":"Point","coordinates":[40.64708102000004,64.51340915000002]},"properties":{"city":"Архангельск","house":"169","id":40071,"name":"Средняя школа №95 им. П.Г. Лушева с дошкольным отделением","post":"163015","street":"Ленинградский проспект","x":40.64708102,"y":64.51340915}},{"type":"Feature","geometry":{"type":"Point","coordinates":[40.560955110000066,64.53220622000009]},"properties":{"city":"Архангельск","house":"17","id":40932,"name":"Престиж, центр изучения иностранных языков","post":"163002","street":"Урицкого","x":40.56095511,"y":64.53220622}},{"type":"Feature","geometry":{"type":"Point","coordinates":[40.531891930000015,64.54966054000003]},"properties":{"city":"Архангельск","house":"18","id":41749,"name":"LiLi Voice, школа вокала","post":"163000","street":"Садовая","x":40.53189193,"y":64.54966054}},{"type":"Feature","geometry":{"type":"Point","coordinates":[40.5706897600001,64.54495891000009]},"properties":{"city":"Архангельск","house":"8","id":41945,"name":"Средняя школа №20, МБОУ","post":"163060","street":"23 Гвардейской Дивизии","x":40.57068976,"y":64.54495891}},{"type":"Feature","geometry":{"type":"Point","coordinates":[40.528032470000085,64.54413596000008]},"properties":{"city":"Архангельск","house":"37","id":42189,"name":"Арктикум, учебный центр","post":"163000","street":"Карла Маркса","x":40.52803247,"y":64.54413596}},{"type":"Feature","geometry":{"type":"Point","coordinates":[40.514000750000044,64.54213724000007]},"properties":{"city":"Архангельск","house":"51","id":42935,"name":"Северный государственный медицинский университет, ФГБОУ ВО","post":"163000","street":"Троицкий проспект","x":40.51400075,"y":64.54213724}},{"type":"Feature","geometry":{"type":"Point","coordinates":[40.5962140600001,64.59965752000005]},"properties":{"city":"Архангельск","house":"4","id":43044,"name":"Средняя школа №51 им. Ф.А. Абрамова","post":"163059","street":"Малиновского","x":40.59621406,"y":64.59965752}},{"type":"Feature","geometry":{"type":"Point","coordinates":[40.524264000000116,64.53484473000003]},"properties":{"city":"Архангельск","house":"5","id":43190,"name":"Лингва плюс, школа английского языка, г. Архангельск","post":"163069","street":"Поморская","x":40.524264,"y":64.53484473}},{"type":"Feature","geometry":{"type":"Point","coordinates":[40.54122793000006,64.55961316000008]},"properties":{"city":"Архангельск","house":"9","id":44184,"name":"Северный государственный медицинский университет, ФГБОУ ВО","post":"163045","street":"Самойло","x":40.54122793,"y":64.55961316}},{"type":"Feature","geometry":{"type":"Point","coordinates":[40.54981142000004,64.52965365000006]},"properties":{"city":"Архангельск","house":"17 к1","id":45813,"name":"Инженерный центр, САФУ им. М.В. Ломоносова","post":"163002","street":"Северной Двины набережная","x":40.54981142,"y":64.52965365}},{"type":"Feature","geometry":{"type":"Point","coordinates":[40.56106088000013,64.52914321000003]},"properties":{"city":"Архангельск","house":"15","id":46234,"name":"Архангельский политехнический техникум, ГАПОУ","post":"163002","street":"Ломоносова проспект","x":40.56106088,"y":64.52914321}},{"type":"Feature","geometry":{"type":"Point","coordinates":[40.52205194000013,64.53931551000005]},"properties":{"city":"Архангельск","house":"6","id":47638,"name":"ArtON, творческая студия","post":"163000","street":"Воскресенская","x":40.52205194,"y":64.53931551}},{"type":"Feature","geometry":{"type":"Point","coordinates":[40.51658775000003,64.57034619000005]},"properties":{"city":"Архангельск","house":"20","id":48236,"name":"Федеральный исследовательский центр комплексного изучения Арктики им. академика Н.П. Лаверова РАН, ФГБНУ","post":"163020","street":"Никольский проспект","x":40.51658775,"y":64.57034619}},{"type":"Feature","geometry":{"type":"Point","coordinates":[40.55533431000003,64.55311020000008]},"properties":{"city":"Архангельск","house":"25","id":49897,"name":"Chef performance, кулинарная студия","post":"163071","street":"Тимме","x":40.55533431,"y":64.5531102}},{"type":"Feature","geometry":{"type":"Point","coordinates":[40.52793793000011,64.5573451600001]},"properties":{"city":"Архангельск","house":"269","id":50386,"name":"Федерация киберспорта Архангельской области","post":"163001","street":"Ломоносова проспект","x":40.52793793,"y":64.55734516}},{"type":"Feature","geometry":{"type":"Point","coordinates":[40.620736630000124,64.53351476000012]},"properties":{"city":"Архангельск","house":"21/1","id":51630,"name":"Школа скорочтения Шамиля Ахмадуллина","post":"163065","street":"Прокопия Галушина","x":40.62073663,"y":64.53351476}},{"type":"Feature","geometry":{"type":"Point","coordinates":[40.52304580000008,64.57033280000013]},"properties":{"city":"Архангельск","house":"5","id":51809,"name":"Центр лечебного массажа Тимура Огадярова","post":"163020","street":"Советская","x":40.5230458,"y":64.5703328}},{"type":"Feature","geometry":{"type":"Point","coordinates":[40.60971988000014,64.7061199600001]},"properties":{"city":"Архангельск","house":"25","id":53312,"name":"Средняя общеобразовательная школа №60 с дошкольным отделением","post":"163029","street":"Мудьюгская","x":40.60971988,"y":64.70611996}},{"type":"Feature","geometry":{"type":"Point","coordinates":[40.701769880000036,64.49126626000009]},"properties":{"city":"Архангельск","house":"7","id":53827,"name":"Средняя школа №27","post":"163016","street":"Кирова","x":40.70176988,"y":64.49126626}},{"type":"Feature","geometry":{"type":"Point","coordinates":[40.56652961000011,64.53274430000008]},"properties":{"city":"Архангельск","house":"7","id":54116,"name":"Северный (Арктический) федеральный университет им. М.В. Ломоносова, ФГАОУ ВО","post":"163002","street":"Смольный Буян","x":40.56652961,"y":64.5327443}},{"type":"Feature","geometry":{"type":"Point","coordinates":[40.51827862000004,64.55051202000004]},"properties":{"city":"Архангельск","house":"93","id":54158,"name":"Архангельский колледж культуры и искусства, ГБПОУ","post":"163000","street":"Троицкий проспект","x":40.51827862,"y":64.55051202}},{"type":"Feature","geometry":{"type":"Point","coordinates":[40.53888476000002,64.53666711000012]},"properties":{"city":"Архангельск","house":"74","id":54876,"name":"ДемГер, учебный центр","post":"163069","street":"Новгородский проспект","x":40.53888476,"y":64.53666711}},{"type":"Feature","geometry":{"type":"Point","coordinates":[40.606593950000075,64.70688836000011]},"properties":{"city":"Архангельск","house":"17 к1","id":55033,"name":"Средняя общеобразовательная школа №60 с дошкольным отделением","post":"163029","street":"Мудьюгская","x":40.60659395,"y":64.70688836}},{"type":"Feature","geometry":{"type":"Point","coordinates":[40.55626755000006,64.55231339000005]},"properties":{"city":"Архангельск","house":"23","id":55189,"name":"Oк, студия английского языка","post":"163071","street":"Тимме","x":40.55626755,"y":64.55231339}},{"type":"Feature","geometry":{"type":"Point","coordinates":[40.59015954000008,64.59582552000009]},"properties":{"city":"Архангельск","house":"22","id":55227,"name":"Oк, студия английского языка","post":"163059","street":"Красных Маршалов","x":40.59015954,"y":64.59582552}},{"type":"Feature","geometry":{"type":"Point","coordinates":[40.522316140000044,64.5465721300001]},"properties":{"city":"Архангельск","house":"18","id":55551,"name":"Старт, центр подготовки охранников","post":"163000","street":"Попова","x":40.52231614,"y":64.54657213}},{"type":"Feature","geometry":{"type":"Point","coordinates":[40.57299917000013,64.53878213000007]},"properties":{"city":"Архангельск","house":"25 к1","id":58491,"name":"Лицей информационных технологий, НОУ","post":"163060","street":"Смольный Буян","x":40.57299917,"y":64.53878213}},{"type":"Feature","geometry":{"type":"Point","coordinates":[40.52846736000002,64.5427100200001]},"properties":{"city":"Архангельск","house":"53","id":59731,"name":"Всероссийский центр карантина растений, ФГБУ, Архангельский территориальный отдел Карельского филиала","post":"163000","street":"Свободы","x":40.52846736,"y":64.54271002}},{"type":"Feature","geometry":{"type":"Point","coordinates":[40.552844610000086,64.53344983000002]},"properties":{"city":"Архангельск","house":"32","id":60989,"name":"Akimova vocal class, студия гармоничного развития творческого человека","post":"163002","street":"Новгородский проспект","x":40.55284461,"y":64.53344983}},{"type":"Feature","geometry":{"type":"Point","coordinates":[40.68148222000013,64.51531167000013]},"properties":{"city":"Архангельск","house":"28 к2","id":61688,"name":"Северный (Арктический) федеральный университет им. М.В. Ломоносова, ФГАОУ ВО","post":"163062","street":"Папанина","x":40.68148222,"y":64.51531167}},{"type":"Feature","geometry":{"type":"Point","coordinates":[40.54804380000015,64.53236171000009]},"properties":{"city":"Архангельск","house":"58","id":61790,"name":"Северный (Арктический) федеральный университет им. М.В. Ломоносова, ФГАОУ ВО","post":"","street":"Ломоносова проспект","x":40.5480438,"y":64.53236171}},{"type":"Feature","geometry":{"type":"Point","coordinates":[40.54218660000003,64.64267398000007]},"properties":{"city":"Архангельск","house":"19","id":62093,"name":"Средняя школа № 68 с дошкольным отделением","post":"163022","street":"Менделеева","x":40.5421866,"y":64.64267398}},{"type":"Feature","geometry":{"type":"Point","coordinates":[40.429366870000074,64.53908563000007]},"properties":{"city":"Архангельск","house":"84","id":65110,"name":"Средняя школа №70 им. Александра Грина с дошкольным отделением","post":"163017","street":"Кегостров","x":40.42936687,"y":64.53908563}},{"type":"Feature","geometry":{"type":"Point","coordinates":[40.54102992000002,64.56750476000008]},"properties":{"city":"Архангельск","house":"140","id":65348,"name":"NORD FILM, киностудия","post":"163045","street":"Северной Двины набережная","x":40.54102992,"y":64.56750476}},{"type":"Feature","geometry":{"type":"Point","coordinates":[40.55450104000005,64.53131515000013]},"properties":{"city":"Архангельск","house":"32","id":65518,"name":"Студия иностранных языков","post":"163002","street":"Ломоносова проспект","x":40.55450104,"y":64.53131515}},{"type":"Feature","geometry":{"type":"Point","coordinates":[40.51622744000012,64.54473722000003]},"properties":{"city":"Архангельск","house":"67","id":65699,"name":"Speak it Up, репетиторский центр","post":"163000","street":"Троицкий проспект","x":40.51622744,"y":64.54473722}},{"type":"Feature","geometry":{"type":"Point","coordinates":[40.52564045000007,64.54894199000015]},"properties":{"city":"Архангельск","house":"206","id":65771,"name":"Вологодская государственная молочно-хозяйственная академия им. Н.В. Верещагина, представительство в г. Архангельске","post":"163000","street":"Ломоносова проспект","x":40.52564045,"y":64.54894199}},{"type":"Feature","geometry":{"type":"Point","coordinates":[40.532862490000134,64.54581124000005]},"properties":{"city":"Архангельск","house":"43","id":66894,"name":"Надежда, центр психолого-медико-социального сопровождения для детей","post":"163000","street":"Попова","x":40.53286249,"y":64.54581124}},{"type":"Feature","geometry":{"type":"Point","coordinates":[40.552844610000086,64.53344983000002]},"properties":{"city":"Архангельск","house":"32","id":66983,"name":"ArcticCeramics, гончарная мастерская","post":"163002","street":"Новгородский проспект","x":40.55284461,"y":64.53344983}},{"type":"Feature","geometry":{"type":"Point","coordinates":[40.51567585000006,64.55167319000013]},"properties":{"city":"Архангельск","house":"111","id":67775,"name":"Региональный центр дополнительного профессионального образования","post":"163000","street":"Северной Двины набережная","x":40.51567585,"y":64.55167319}},{"type":"Feature","geometry":{"type":"Point","coordinates":[40.53022989000009,64.53484860000007]},"properties":{"city":"Архангельск","house":"26","id":68499,"name":"Архангельский техникум строительства и экономики, ГБПОУ","post":"","street":"Чумбарова-Лучинского проспект","x":40.53022989,"y":64.5348486}},{"type":"Feature","geometry":{"type":"Point","coordinates":[40.54312629000002,64.55069924000001]},"properties":{"city":"Архангельск","house":"44/1","id":68661,"name":"Высший балл, образовательный центр","post":"163071","street":"Гайдара","x":40.54312629,"y":64.55069924}},{"type":"Feature","geometry":{"type":"Point","coordinates":[40.589085020000056,64.59112174000003]},"properties":{"city":"Архангельск","house":"8","id":69425,"name":"Северный (Арктический) федеральный университет им. М.В. Ломоносова, ФГАОУ ВО","post":"163012","street":"Кутузова","x":40.58908502,"y":64.59112174}},{"type":"Feature","geometry":{"type":"Point","coordinates":[40.56786315000009,64.55635651000011]},"properties":{"city":"Архангельск","house":"20","id":70363,"name":"Федеральная пассажирская компания, АО, Северный филиал","post":"163051","street":"Дзержинского проспект","x":40.56786315,"y":64.55635651}},{"type":"Feature","geometry":{"type":"Point","coordinates":[40.51589440000008,64.5469954300001]},"properties":{"city":"Архангельск","house":"6","id":70518,"name":"Speak it Up, репетиторский центр","post":"163000","street":"Попова","x":40.5158944,"y":64.54699543}},{"type":"Feature","geometry":{"type":"Point","coordinates":[40.552844610000086,64.53344983000002]},"properties":{"city":"Архангельск","house":"32","id":70627,"name":"Prima №1, вокальная школа","post":"163002","street":"Новгородский проспект","x":40.55284461,"y":64.53344983}},{"type":"Feature","geometry":{"type":"Point","coordinates":[40.67912513000005,64.51175623000013]},"properties":{"city":"Архангельск","house":"30","id":71526,"name":"Техникум строительства и городского хозяйства","post":"163062","street":"Воронина В.И.","x":40.67912513,"y":64.51175623}},{"type":"Feature","geometry":{"type":"Point","coordinates":[40.56710404000008,64.53163017000003]},"properties":{"city":"Архангельск","house":"5","id":72968,"name":"Архангельский педагогический колледж","post":"163002","street":"Смольный Буян","x":40.56710404,"y":64.53163017}},{"type":"Feature","geometry":{"type":"Point","coordinates":[40.54981142000004,64.52965365000006]},"properties":{"city":"Архангельск","house":"17 к1","id":73197,"name":"Лицей академии Яндекса","post":"163002","street":"Северной Двины набережная","x":40.54981142,"y":64.52965365}},{"type":"Feature","geometry":{"type":"Point","coordinates":[40.61142329000009,64.53397125000005]},"properties":{"city":"Архангельск","house":"41/2","id":73745,"name":"Высший балл, образовательный центр","post":"163065","street":"Московский проспект","x":40.61142329,"y":64.53397125}},{"type":"Feature","geometry":{"type":"Point","coordinates":[40.50617788000013,64.68166683000004]},"properties":{"city":"Архангельск","house":"128 к1","id":75285,"name":"Средняя школа №59 им. Героя Советского Союза М.Е. Родионова","post":"163026","street":"Победы","x":40.50617788,"y":64.68166683}},{"type":"Feature","geometry":{"type":"Point","coordinates":[40.56953099000012,64.5493671700001]},"properties":{"city":"Архангельск","house":"118","id":75858,"name":"Флорет, дизайн-студия флористики","post":"163051","street":"Воскресенская","x":40.56953099,"y":64.54936717}},{"type":"Feature","geometry":{"type":"Point","coordinates":[40.568997790000026,64.52877816000012]},"properties":{"city":"Архангельск","house":"3 к1","id":76215,"name":"Центр Комплексной Безопасности, ООО","post":"163002","street":"Ленинградский проспект","x":40.56899779,"y":64.52877816}},{"type":"Feature","geometry":{"type":"Point","coordinates":[40.57265583000005,64.53956944000004]},"properties":{"city":"Архангельск","house":"68 к2","id":77171,"name":"Архангельский педагогический колледж","post":"163060","street":"Урицкого","x":40.57265583,"y":64.53956944}},{"type":"Feature","geometry":{"type":"Point","coordinates":[40.67032108000011,64.51137829000008]},"properties":{"city":"Архангельск","house":"9 к1","id":77756,"name":"Oк, студия английского языка","post":"163062","street":"Никитова","x":40.67032108,"y":64.51137829}},{"type":"Feature","geometry":{"type":"Point","coordinates":[40.68214952000008,64.51366884000007]},"properties":{"city":"Архангельск","house":"30 к3","id":77773,"name":"Архангельский колледж телекоммуникаций им. Б.Л. Розинга, ФГБОУ ВО Санкт-Петербургский государственный университет телекоммуникаций им. профессора М.А. Бонч-Бруевича, филиал СПбГУТ им. профессора М.А. Бонч-Бруевича","post":"163062","street":"Воронина В.И.","x":40.68214952,"y":64.51366884}},{"type":"Feature","geometry":{"type":"Point","coordinates":[40.51605615000008,64.54408271000007]},"properties":{"city":"Архангельск","house":"63","id":78077,"name":"Региональный техникум экономики и права, ПОЧУ","post":"163000","street":"Троицкий проспект","x":40.51605615,"y":64.54408271}},{"type":"Feature","geometry":{"type":"Point","coordinates":[40.55450104000005,64.53131515000013]},"properties":{"city":"Архангельск","house":"32","id":79135,"name":"Эрудит, репетиторский центр","post":"163002","street":"Ломоносова проспект","x":40.55450104,"y":64.53131515}},{"type":"Feature","geometry":{"type":"Point","coordinates":[40.51622744000012,64.54473722000003]},"properties":{"city":"Архангельск","house":"67","id":79781,"name":"Карьера плюс, учебный центр","post":"163000","street":"Троицкий проспект","x":40.51622744,"y":64.54473722}},{"type":"Feature","geometry":{"type":"Point","coordinates":[40.54025094000011,64.55553302000007]},"properties":{"city":"Архангельск","house":"178","id":80030,"name":"Учебно-методический центр, ЧОУ ДПО","post":"163072","street":"Советских Космонавтов проспект","x":40.54025094,"y":64.55553302}},{"type":"Feature","geometry":{"type":"Point","coordinates":[40.679677440000084,64.5010311800001]},"properties":{"city":"Архангельск","house":"320","id":80092,"name":"Архангельский морской рыбопромышленный техникум","post":"163030","street":"Ленинградский проспект","x":40.67967744,"y":64.50103118}},{"type":"Feature","geometry":{"type":"Point","coordinates":[40.56191649000008,64.52673572000003]},"properties":{"city":"Архангельск","house":"2 к2","id":80253,"name":"Северный (Арктический) федеральный университет им. М.В. Ломоносова, ФГАОУ ВО","post":"163002","street":"Северной Двины набережная","x":40.56191649,"y":64.52673572}},{"type":"Feature","geometry":{"type":"Point","coordinates":[40.53009757000008,64.54551945000003]},"properties":{"city":"Архангельск","house":"160","id":80292,"name":"Архангельский региональный ресурсный центр, ГКУ","post":"163000","street":"Новгородский проспект","x":40.53009757,"y":64.54551945}},{"type":"Feature","geometry":{"type":"Point","coordinates":[40.673421070000074,64.51211699000007]},"properties":{"city":"Архангельск","house":"13","id":80605,"name":"Северный НИИ лесного хозяйства, ФБУ Северный научно-исследовательский институт лесного хозяйства","post":"163062","street":"Никитова","x":40.67342107,"y":64.51211699}},{"type":"Feature","geometry":{"type":"Point","coordinates":[40.52420630000006,64.55751392000012]},"properties":{"city":"Архангельск","house":"162","id":82286,"name":"Средняя школа №23 им. А.С. Пушкина","post":"163001","street":"Троицкий проспект","x":40.5242063,"y":64.55751392}},{"type":"Feature","geometry":{"type":"Point","coordinates":[40.51687465000004,64.54575528000001]},"properties":{"city":"Архангельск","house":"69","id":83650,"name":"Гимназия №6","post":"163000","street":"Троицкий проспект","x":40.51687465,"y":64.54575528}},{"type":"Feature","geometry":{"type":"Point","coordinates":[40.52039207000007,64.59427189000007]},"properties":{"city":"Архангельск","house":"1 к1","id":83691,"name":"Институт океанологии им П.П. Ширшова Российской академии наук, ФГБУ, Северо-Западное отделение","post":"","street":"Маймаксанское шоссе","x":40.52039207,"y":64.59427189}},{"type":"Feature","geometry":{"type":"Point","coordinates":[40.55102764000007,64.52927752000011]},"properties":{"city":"Архангельск","house":"17","id":84201,"name":"Северный (Арктический) федеральный университет им. М.В. Ломоносова, ФГАОУ ВО","post":"163002","street":"Северной Двины набережная","x":40.55102764,"y":64.52927752}},{"type":"Feature","geometry":{"type":"Point","coordinates":[40.54305151000007,64.56316881000006]},"properties":{"city":"Архангельск","house":"2 к1","id":85501,"name":"Северный государственный медицинский университет, ФГБОУ ВО","post":"163045","street":"Сибиряковцев проезд","x":40.54305151,"y":64.56316881}},{"type":"Feature","geometry":{"type":"Point","coordinates":[40.56450517000013,64.55647143000007]},"properties":{"city":"Архангельск","house":"23","id":85714,"name":"Архангельский колледж культуры и искусства, ГБПОУ","post":"163051","street":"Дзержинского проспект","x":40.56450517,"y":64.55647143}},{"type":"Feature","geometry":{"type":"Point","coordinates":[40.675265200000084,64.5161701400001]},"properties":{"city":"Архангельск","house":"24","id":86756,"name":"Архангельский колледж телекоммуникаций им. Б.Л. Розинга, ФГБОУ ВО Санкт-Петербургский государственный университет телекоммуникаций им. профессора М.А. Бонч-Бруевича, филиал СПбГУТ им. профессора М.А. Бонч-Бруевича","post":"163062","street":"Папанина","x":40.6752652,"y":64.51617014}},{"type":"Feature","geometry":{"type":"Point","coordinates":[40.56253079000001,64.53032667000012]},"properties":{"city":"Архангельск","house":"2","id":86851,"name":"Северный (Арктический) федеральный университет им. М.В. Ломоносова, ФГАОУ ВО","post":"163002","street":"Красноармейская","x":40.56253079,"y":64.53032667}},{"type":"Feature","geometry":{"type":"Point","coordinates":[40.5246086500001,64.53878933000004]},"properties":{"city":"Архангельск","house":"19","id":86953,"name":"Учебно-курсовой комбинат жилищно-коммунального хозяйства","post":"163000","street":"Карла Либкнехта","x":40.52460865,"y":64.53878933}},{"type":"Feature","geometry":{"type":"Point","coordinates":[40.54543303000011,64.53716862000007]},"properties":{"city":"Архангельск","house":"38","id":87649,"name":"Всероссийский НИИ охотничьего хозяйства и звероводства им. профессора Б.М. Житкова, ФГБНУ, Северный филиал","post":"163046","street":"Советских Космонавтов проспект","x":40.54543303,"y":64.53716862}},{"type":"Feature","geometry":{"type":"Point","coordinates":[40.570250080000086,64.53617561000004]},"properties":{"city":"Архангельск","house":"2","id":87923,"name":"Архангельский политехнический техникум, ГАПОУ","post":"163060","street":"Обводный канал проспект","x":40.57025008,"y":64.53617561}},{"type":"Feature","geometry":{"type":"Point","coordinates":[40.68724415000003,64.50485409000007]},"properties":{"city":"Архангельск","house":"15","id":88236,"name":"Средняя школа №30, МБОУ","post":"163030","street":"Квартальная","x":40.68724415,"y":64.50485409}},{"type":"Feature","geometry":{"type":"Point","coordinates":[40.530075400000065,64.58543096000008]},"properties":{"city":"Архангельск","house":"4","id":88835,"name":"Архангельский техникум водных магистралей им. С.Н. Орешкова, ГАПОУ","post":"163013","street":"Полярная","x":40.5300754,"y":64.58543096}},{"type":"Feature","geometry":{"type":"Point","coordinates":[40.470947970000125,64.62023098]},"properties":{"city":"Архангельск","house":"34 к1","id":90188,"name":"Средняя общеобразовательная школа №54 с дошкольным отделением","post":"163018","street":"Юнг Военно-Морского Флота","x":40.47094797,"y":64.62023098}},{"type":"Feature","geometry":{"type":"Point","coordinates":[40.77011260000007,64.48310751000011]},"properties":{"city":"Архангельск","house":"11","id":90752,"name":"Архангельский политехнический техникум, ГАПОУ","post":"163058","street":"Силикатчиков","x":40.7701126,"y":64.48310751}},{"type":"Feature","geometry":{"type":"Point","coordinates":[40.655720380000055,64.45931805000004]},"properties":{"city":"Архангельск","house":"46","id":91264,"name":"Средняя общеобразовательная школа №82","post":"163038","street":"Речников","x":40.65572038,"y":64.45931805}},{"type":"Feature","geometry":{"type":"Point","coordinates":[40.70252117000011,64.52345040000009]},"properties":{"city":"Архангельск","house":"72 к1 ст1","id":91510,"name":"Профессионал, учебно-спортивный клуб","post":"163057","street":"Дачная","x":40.70252117,"y":64.5234504}},{"type":"Feature","geometry":{"type":"Point","coordinates":[40.61142329000009,64.53397125000005]},"properties":{"city":"Архангельск","house":"41/2","id":91673,"name":"Oк, студия английского языка","post":"163065","street":"Московский проспект","x":40.61142329,"y":64.53397125}},{"type":"Feature","geometry":{"type":"Point","coordinates":[40.33296546000002,64.5373036200001]},"properties":{"city":"Архангельск","house":"11","id":92194,"name":"Средняя общеобразовательная школа №73","post":"163044","street":"Стивидорская","x":40.33296546,"y":64.53730362}},{"type":"Feature","geometry":{"type":"Point","coordinates":[40.57829428000016,64.60120985000006]},"properties":{"city":"Архангельск","house":"41 к3","id":92334,"name":"Северный техникум транспорта и технологий","post":"163059","street":"Ильича","x":40.57829428,"y":64.60120985}},{"type":"Feature","geometry":{"type":"Point","coordinates":[40.68458246000009,64.51297215000008]},"properties":{"city":"Архангельск","house":"30 к2","id":93862,"name":"Северный (Арктический) федеральный университет им. М.В. Ломоносова, ФГАОУ ВО","post":"163062","street":"Воронина В.И.","x":40.68458246,"y":64.51297215}},{"type":"Feature","geometry":{"type":"Point","coordinates":[40.588073010000095,64.60207094000009]},"properties":{"city":"Архангельск","house":"47 к2","id":94434,"name":"Многопрофильный колледж, ГБПОУ Архангельский государственный многопрофильный колледж","post":"163059","street":"Партизанская","x":40.58807301,"y":64.60207094}},{"type":"Feature","geometry":{"type":"Point","coordinates":[40.56450517000013,64.55647143000007]},"properties":{"city":"Архангельск","house":"23","id":94915,"name":"Архангельский музыкальный колледж","post":"163051","street":"Дзержинского проспект","x":40.56450517,"y":64.55647143}},{"type":"Feature","geometry":{"type":"Point","coordinates":[40.560955110000066,64.53220622000009]},"properties":{"city":"Архангельск","house":"17","id":95048,"name":"Двинской, учебный центр","post":"163002","street":"Урицкого","x":40.56095511,"y":64.53220622}},{"type":"Feature","geometry":{"type":"Point","coordinates":[40.55167301000005,64.52837139000007]},"properties":{"city":"Архангельск","house":"14/1","id":95071,"name":"Северный (Арктический) федеральный университет им. М.В. Ломоносова, ФГАОУ ВО","post":"163002","street":"Северной Двины набережная","x":40.55167301,"y":64.52837139}},{"type":"Feature","geometry":{"type":"Point","coordinates":[40.59015954000008,64.59582552000009]},"properties":{"city":"Архангельск","house":"22","id":95166,"name":"Высший балл, образовательный центр","post":"163059","street":"Красных Маршалов","x":40.59015954,"y":64.59582552}},{"type":"Feature","geometry":{"type":"Point","coordinates":[40.522407150000085,64.5605754900001]},"properties":{"city":"Архангельск","house":"2","id":95607,"name":"Северный экономический лицей","post":"163001","street":"Суворова","x":40.52240715,"y":64.56057549}},{"type":"Feature","geometry":{"type":"Point","coordinates":[40.52763963000013,64.5606673300001]},"properties":{"city":"Архангельск","house":"180","id":95637,"name":"Северный государственный медицинский университет, ФГБОУ ВО","post":"163001","street":"Троицкий проспект","x":40.52763963,"y":64.56066733}},{"type":"Feature","geometry":{"type":"Point","coordinates":[40.55632753000004,64.5540163900001]},"properties":{"city":"Архангельск","house":"28","id":96293,"name":"Now \u0026 How, школа рока","post":"163051","street":"Тимме","x":40.55632753,"y":64.55401639}},{"type":"Feature","geometry":{"type":"Point","coordinates":[40.6734729200001,64.51450585000003]},"properties":{"city":"Архангельск","house":"34","id":97991,"name":"Технологический колледж Императора Петра I","post":"163062","street":"Воронина В.И.","x":40.67347292,"y":64.51450585}},{"type":"Feature","geometry":{"type":"Point","coordinates":[40.55400760000011,64.53263786000015]},"properties":{"city":"Архангельск","house":"21","id":99145,"name":"Архангельский медицинский колледж","post":"163002","street":"Новгородский проспект","x":40.5540076,"y":64.53263786}},{"type":"Feature","geometry":{"type":"Point","coordinates":[40.55533431000003,64.55311020000008]},"properties":{"city":"Архангельск","house":"25","id":99452,"name":"ИНФО, учебный центр","post":"163071","street":"Тимме","x":40.55533431,"y":64.5531102}},{"type":"Feature","geometry":{"type":"Point","coordinates":[40.522815830000134,64.54691871000014]},"properties":{"city":"Архангельск","house":"19","id":99755,"name":"Лико, студия массажа лица и тела","post":"163000","street":"Попова","x":40.52281583,"y":64.54691871}},{"type":"Feature","geometry":{"type":"Point","coordinates":[40.571012610000054,64.53987705000004]},"properties":{"city":"Архангельск","house":"68","id":100263,"name":"Архангельский педагогический колледж","post":"163060","street":"Урицкого","x":40.57101261,"y":64.53987705}},{"type":"Feature","geometry":{"type":"Point","coordinates":[40.76996200000016,64.48261931000012]},"properties":{"city":"Архангельск","house":"10","id":100427,"name":"Архангельский политехнический техникум, ГАПОУ","post":"163058","street":"Силикатчиков","x":40.769962,"y":64.48261931}},{"type":"Feature","geometry":{"type":"Point","coordinates":[40.59744775000013,64.5261770700001]},"properties":{"city":"Архангельск","house":"75","id":100525,"name":"Эколого-биологический лицей им. академика Н.П. Лаверова","post":"163009","street":"Ленинградский проспект","x":40.59744775,"y":64.52617707}},{"type":"Feature","geometry":{"type":"Point","coordinates":[40.552844610000086,64.53344983000002]},"properties":{"city":"Архангельск","house":"32","id":101586,"name":"Палитра знаний, студия английского и французского языков","post":"163002","street":"Новгородский проспект","x":40.55284461,"y":64.53344983}},{"type":"Feature","geometry":{"type":"Point","coordinates":[40.52667582000011,64.53086540000001]},"properties":{"city":"Архангельск","house":"55","id":102722,"name":"Language. Today, студия иностранных языков","post":"163069","street":"Северной Двины набережная","x":40.52667582,"y":64.5308654}},{"type":"Feature","geometry":{"type":"Point","coordinates":[40.5183543300001,64.54522791000008]},"properties":{"city":"Архангельск","house":"106","id":103162,"name":"JumpingClay, студия лепки","post":"163000","street":"Троицкий проспект","x":40.51835433,"y":64.54522791}},{"type":"Feature","geometry":{"type":"Point","coordinates":[40.56493256000013,64.53070409000006]},"properties":{"city":"Архангельск","house":"4","id":103532,"name":"Северный (Арктический) федеральный университет им. М.В. Ломоносова, ФГАОУ ВО","post":"163002","street":"Ломоносова проспект","x":40.56493256,"y":64.53070409}},{"type":"Feature","geometry":{"type":"Point","coordinates":[40.68077293000008,64.51442605000003]},"properties":{"city":"Архангельск","house":"32 к2","id":104066,"name":"Северный (Арктический) федеральный университет им. М.В. Ломоносова, ФГАОУ ВО","post":"163062","street":"Воронина В.И.","x":40.68077293,"y":64.51442605}},{"type":"Feature","geometry":{"type":"Point","coordinates":[40.552844610000086,64.53344983000002]},"properties":{"city":"Архангельск","house":"32","id":104899,"name":"Студия Натальи Голубевой","post":"163002","street":"Новгородский проспект","x":40.55284461,"y":64.53344983}},{"type":"Feature","geometry":{"type":"Point","coordinates":[40.567029310000116,64.53779532000003]},"properties":{"city":"Архангельск","house":"47","id":105949,"name":"Speak it Up, репетиторский центр","post":"163060","street":"Урицкого","x":40.56702931,"y":64.53779532}},{"type":"Feature","geometry":{"type":"Point","coordinates":[40.51641782000015,64.53760947000006]},"properties":{"city":"Архангельск","house":"64","id":106744,"name":"Колледж Менеджмента, ЧПОУ","post":"163069","street":"Троицкий проспект","x":40.51641782,"y":64.53760947}},{"type":"Feature","geometry":{"type":"Point","coordinates":[40.56431035000005,64.55104200000005]},"properties":{"city":"Архангельск","house":"103 к1","id":106943,"name":"Средняя школа №5 с дошкольным отделением","post":"163051","street":"Воскресенская","x":40.56431035,"y":64.551042}},{"type":"Feature","geometry":{"type":"Point","coordinates":[40.51539717000004,64.54451590000009]},"properties":{"city":"Архангельск","house":"65","id":107565,"name":"Эмигрируй просто, ООО","post":"163000","street":"Троицкий проспект","x":40.51539717,"y":64.5445159}},{"type":"Feature","geometry":{"type":"Point","coordinates":[40.588994940000106,64.59054460000004]},"properties":{"city":"Архангельск","house":"6","id":108666,"name":"Северный (Арктический) федеральный университет им. М.В. Ломоносова, ФГАОУ ВО","post":"163012","street":"Кутузова","x":40.58899494,"y":64.5905446}},{"type":"Feature","geometry":{"type":"Point","coordinates":[40.47130288000007,64.58162192000007]},"properties":{"city":"Архангельск","house":"3 к1","id":109973,"name":"Основная общеобразовательная школа №48 с дошкольным отделением","post":"163019","street":"Приморская","x":40.47130288,"y":64.58162192}},{"type":"Feature","geometry":{"type":"Point","coordinates":[40.570094410000095,64.54653838000007]},"properties":{"city":"Архангельск","house":"9","id":110112,"name":"Средняя школа №33","post":"163051","street":"23 Гвардейской Дивизии","x":40.57009441,"y":64.54653838}},{"type":"Feature","geometry":{"type":"Point","coordinates":[40.52035571000003,64.53521611000015]},"properties":{"city":"Архангельск","house":"39","id":110191,"name":"Архангельский центр дистанционного образования, представительство ММУ, ММА, РГУТиС, ВГЛТУ, Оренбургской бизнес-школы в г. Архангельске","post":"163069","street":"Троицкий проспект","x":40.52035571,"y":64.53521611}},{"type":"Feature","geometry":{"type":"Point","coordinates":[40.57012534000009,64.54205696000014]},"properties":{"city":"Архангельск","house":"4 к3","id":111093,"name":"Bonjour, творческая студия","post":"163060","street":"Тимме","x":40.57012534,"y":64.54205696}},{"type":"Feature","geometry":{"type":"Point","coordinates":[40.57299917000013,64.53878213000007]},"properties":{"city":"Архангельск","house":"25 к1","id":111272,"name":"Архангельский педагогический колледж","post":"163060","street":"Смольный Буян","x":40.57299917,"y":64.53878213}},{"type":"Feature","geometry":{"type":"Point","coordinates":[40.56217166000012,64.55314536000003]},"properties":{"city":"Архангельск","house":"22 к3","id":113053,"name":"Гимназия №24","post":"163051","street":"Тимме","x":40.56217166,"y":64.55314536}},{"type":"Feature","geometry":{"type":"Point","coordinates":[40.675265200000084,64.5161701400001]},"properties":{"city":"Архангельск","house":"24","id":113291,"name":"Отдел дополнительного образования, Архангельский колледж телекоммуникаций им. Б.Л. Розинга","post":"163062","street":"Папанина","x":40.6752652,"y":64.51617014}},{"type":"Feature","geometry":{"type":"Point","coordinates":[40.66990721000008,64.5204720400001]},"properties":{"city":"Архангельск","house":"57 к2","id":113805,"name":"Архангельский торгово-экономический колледж, ГАПОУ","post":"163015","street":"Дачная","x":40.66990721,"y":64.52047204}},{"type":"Feature","geometry":{"type":"Point","coordinates":[40.52237508000011,64.53696906000008]},"properties":{"city":"Архангельск","house":"47","id":113832,"name":"Центр обучения инновациям","post":"","street":"Чумбарова-Лучинского проспект","x":40.52237508,"y":64.53696906}},{"type":"Feature","geometry":{"type":"Point","coordinates":[40.52020706000011,64.55715750000007]},"properties":{"city":"Архангельск","house":"2","id":114097,"name":"Академия, частная школа","post":"163001","street":"Федота Шубина","x":40.52020706,"y":64.5571575}},{"type":"Feature","geometry":{"type":"Point","coordinates":[40.57957967000012,64.59374838000008]},"properties":{"city":"Архангельск","house":"26","id":114543,"name":"Многопрофильный колледж, ГБПОУ Архангельский государственный многопрофильный колледж","post":"163012","street":"Титова","x":40.57957967,"y":64.59374838}},{"type":"Feature","geometry":{"type":"Point","coordinates":[40.54981142000004,64.52965365000006]},"properties":{"city":"Архангельск","house":"17 к1","id":115044,"name":"Северный (Арктический) федеральный университет им. М.В. Ломоносова, ФГАОУ ВО","post":"163002","street":"Северной Двины набережная","x":40.54981142,"y":64.52965365}},{"type":"Feature","geometry":{"type":"Point","coordinates":[40.51970548000007,64.53305105000005]},"properties":{"city":"Архангельск","house":"73","id":115957,"name":"Областная очно-заочная школа для одаренных детей","post":"163069","street":"Северной Двины набережная","x":40.51970548,"y":64.53305105}},{"type":"Feature","geometry":{"type":"Point","coordinates":[40.554458020000006,64.55376864000007]},"properties":{"city":"Архангельск","house":"27","id":116925,"name":"Северный государственный медицинский университет, ФГБОУ ВО","post":"163071","street":"Тимме","x":40.55445802,"y":64.55376864}},{"type":"Feature","geometry":{"type":"Point","coordinates":[40.51748121000007,64.55265609000008]},"properties":{"city":"Архангельск","house":"4 к1","id":117848,"name":"Экологический консалтинговый центр, ЧУ ДПО","post":"163000","street":"Гайдара","x":40.51748121,"y":64.55265609}},{"type":"Feature","geometry":{"type":"Point","coordinates":[40.525413760000106,64.54448987000012]},"properties":{"city":"Архангельск","house":"29","id":118471,"name":"ВундерКит, детский развивающий центр, ООО Вундеркинд","post":"163000","street":"Карла Маркса","x":40.52541376,"y":64.54448987}},{"type":"Feature","geometry":{"type":"Point","coordinates":[40.519662970000155,64.5866667400001]},"properties":{"city":"Архангельск","house":"34","id":121688,"name":"Средняя общеобразовательная школа №62 им. Героя Советского Союза В.Ф. Маргелова","post":"163013","street":"Кедрова","x":40.51966297,"y":64.58666674}},{"type":"Feature","geometry":{"type":"Point","coordinates":[40.58069315000014,64.59323769000008]},"properties":{"city":"Архангельск","house":"13","id":121742,"name":"Средняя школа №37, МБОУ","post":"163012","street":"Индустриальная","x":40.58069315,"y":64.59323769}},{"type":"Feature","geometry":{"type":"Point","coordinates":[40.51817341000002,64.53862877000009]},"properties":{"city":"Архангельск","house":"4","id":121767,"name":"Levels, языковая студия","post":"163069","street":"Ленина площадь","x":40.51817341,"y":64.53862877}},{"type":"Feature","geometry":{"type":"Point","coordinates":[40.535249050000104,64.54482218000007]},"properties":{"city":"Архангельск","house":"67","id":121992,"name":"Funoteka, творческий центр","post":"163046","street":"Обводный канал проспект","x":40.53524905,"y":64.54482218}},{"type":"Feature","geometry":{"type":"Point","coordinates":[40.51952484000005,64.58590912000011]},"properties":{"city":"Архангельск","house":"34 ст2","id":122358,"name":"Старт, центр подготовки охранников","post":"163013","street":"Кедрова","x":40.51952484,"y":64.58590912}},{"type":"Feature","geometry":{"type":"Point","coordinates":[40.551877060000066,64.54741502000006]},"properties":{"city":"Архангельск","house":"93 к1","id":122837,"name":"Фея рукоделия, творческая мастерская","post":"163071","street":"Воскресенская","x":40.55187706,"y":64.54741502}},{"type":"Feature","geometry":{"type":"Point","coordinates":[40.52156113000014,64.53444750000008]},"properties":{"city":"Архангельск","house":"37","id":123499,"name":"ALLA PRIMA, художественная студия","post":"163069","street":"Троицкий проспект","x":40.52156113,"y":64.5344475}},{"type":"Feature","geometry":{"type":"Point","coordinates":[40.523902840000055,64.55579424000007]},"properties":{"city":"Архангельск","house":"158","id":123792,"name":"Северная театральная эстрадно-цирковая школа, ЧОУ ДО","post":"163001","street":"Троицкий проспект","x":40.52390284,"y":64.55579424}},{"type":"Feature","geometry":{"type":"Point","coordinates":[40.539371970000104,64.53007371000007]},"properties":{"city":"Архангельск","house":"30","id":123906,"name":"My English Lab, центр изучения английского языка","post":"163069","street":"Северной Двины набережная","x":40.53937197,"y":64.53007371}},{"type":"Feature","geometry":{"type":"Point","coordinates":[40.61931265000008,64.53245917000001]},"properties":{"city":"Архангельск","house":"49","id":124514,"name":"Кодология, школа программирования","post":"163065","street":"Московский проспект","x":40.61931265,"y":64.53245917}},{"type":"Feature","geometry":{"type":"Point","coordinates":[40.523902840000055,64.55579424000007]},"properties":{"city":"Архангельск","house":"158","id":127004,"name":"Фотошкола","post":"163001","street":"Троицкий проспект","x":40.52390284,"y":64.55579424}},{"type":"Feature","geometry":{"type":"Point","coordinates":[40.55450104000005,64.53131515000013]},"properties":{"city":"Архангельск","house":"32","id":127176,"name":"Школа современного образования, АНОО","post":"163002","street":"Ломоносова проспект","x":40.55450104,"y":64.53131515}},{"type":"Feature","geometry":{"type":"Point","coordinates":[40.618028520000074,64.43141157000014]},"properties":{"city":"Архангельск","house":"3 к1","id":127668,"name":"Средняя школа №34 им. А.И. Клепача","post":"163039","street":"Клепача","x":40.61802852,"y":64.43141157}},{"type":"Feature","geometry":{"type":"Point","coordinates":[40.5143141700001,64.5806390700001]},"properties":{"city":"Архангельск","house":"32","id":127872,"name":"Oк, студия английского языка","post":"163020","street":"Советская","x":40.51431417,"y":64.58063907}},{"type":"Feature","geometry":{"type":"Point","coordinates":[40.56064115000002,64.5552724100001]},"properties":{"city":"Архангельск","house":"46","id":128208,"name":"Мастерская игры на барабанах и гитаре","post":"163051","street":"Гагарина","x":40.56064115,"y":64.55527241}},{"type":"Feature","geometry":{"type":"Point","coordinates":[40.686317850000066,64.51037793000006]},"properties":{"city":"Архангельск","house":"28 к1","id":128355,"name":"Средняя школа №28, МБОУ","post":"","street":"Воронина В.И.","x":40.68631785,"y":64.51037793}},{"type":"Feature","geometry":{"type":"Point","coordinates":[40.53696682000007,64.56232260000007]},"properties":{"city":"Архангельск","house":"291/1","id":128686,"name":"Архангельский финансово-промышленный колледж","post":"163045","street":"Ломоносова проспект","x":40.53696682,"y":64.5623226}},{"type":"Feature","geometry":{"type":"Point","coordinates":[40.59506713000007,64.4328226200001]},"properties":{"city":"Архангельск","house":"9","id":128869,"name":"Центр профессиональной подготовки, Управление МВД России по Архангельской области","post":"163039","street":"Вторая линия","x":40.59506713,"y":64.43282262}},{"type":"Feature","geometry":{"type":"Point","coordinates":[40.56353963000007,64.52837663000007]},"properties":{"city":"Архангельск","house":"13","id":129203,"name":"Кодология, школа программирования","post":"163002","street":"Ломоносова проспект","x":40.56353963,"y":64.52837663}},{"type":"Feature","geometry":{"type":"Point","coordinates":[40.55494978000012,64.5358841200001]},"properties":{"city":"Архангельск","house":"34/4","id":129481,"name":"Северный (Арктический) федеральный университет им. М.В. Ломоносова, ФГАОУ ВО","post":"163002","street":"Новгородский проспект","x":40.55494978,"y":64.53588412}},{"type":"Feature","geometry":{"type":"Point","coordinates":[40.676584650000066,64.50728901000008]},"properties":{"city":"Архангельск","house":"29 к2","id":129926,"name":"Easy-e, студия иностранных языков","post":"163057","street":"Воронина В.И.","x":40.67658465,"y":64.50728901}},{"type":"Feature","geometry":{"type":"Point","coordinates":[40.517461790000084,64.55049458000006]},"properties":{"city":"Архангельск","house":"111 к1","id":130554,"name":"Арктический морской институт им. В.И. Воронина, ФГБОУ ВО Государственный университет морского и речного флота им. адмирала С.О. Макарова","post":"163000","street":"Северной Двины набережная","x":40.51746179,"y":64.55049458}},{"type":"Feature","geometry":{"type":"Point","coordinates":[40.523397760000144,64.53661339000013]},"properties":{"city":"Архангельск","house":"41","id":130887,"name":"Easy-e, студия иностранных языков","post":"","street":"Чумбарова-Лучинского проспект","x":40.52339776,"y":64.53661339}},{"type":"Feature","geometry":{"type":"Point","coordinates":[40.523258140000074,64.53239785000008]},"properties":{"city":"Архангельск","house":"71","id":131677,"name":"Уютный дом, арт-пространство","post":"163000/3","street":"Северной Двины набережная","x":40.52325814,"y":64.53239785}},{"type":"Feature","geometry":{"type":"Point","coordinates":[40.5094629600001,64.58678361000005]},"properties":{"city":"Архангельск","house":"20","id":132860,"name":"Детская школа искусств №2 им. А.П. Загвоздиной, МБУ ДО","post":"163013","street":"Кедрова","x":40.50946296,"y":64.58678361}},{"type":"Feature","geometry":{"type":"Point","coordinates":[40.55654172000008,64.5627679400001]},"properties":{"city":"Архангельск","house":"19","id":133736,"name":"Архангельский медицинский колледж","post":"163045","street":"Сибиряковцев проезд","x":40.55654172,"y":64.56276794}},{"type":"Feature","geometry":{"type":"Point","coordinates":[40.5608728200001,64.54507072000011]},"properties":{"city":"Архангельск","house":"106/2","id":134614,"name":"Средняя школа №17","post":"163060","street":"Воскресенская","x":40.56087282,"y":64.54507072}},{"type":"Feature","geometry":{"type":"Point","coordinates":[40.677200190000136,64.51673038000006]},"properties":{"city":"Архангельск","house":"26","id":134886,"name":"Архангельский колледж телекоммуникаций им. Б.Л. Розинга, ФГБОУ ВО Санкт-Петербургский государственный университет телекоммуникаций им. профессора М.А. Бонч-Бруевича, филиал СПбГУТ им. профессора М.А. Бонч-Бруевича","post":"163062","street":"Папанина","x":40.67720019,"y":64.51673038}},{"type":"Feature","geometry":{"type":"Point","coordinates":[40.54748210000011,64.54381163000009]},"properties":{"city":"Архангельск","house":"20","id":136329,"name":"Средняя школа №4 им. Н.М. Рубцова","post":"163046","street":"Суфтина","x":40.5474821,"y":64.54381163}},{"type":"Feature","geometry":{"type":"Point","coordinates":[40.52183171000008,64.55186423000006]},"properties":{"city":"Архангельск","house":"130","id":136461,"name":"Средняя школа №14 с углублённым изучением отдельных предметов им. Я.И. Лейцингера, МБОУ","post":"163000","street":"Троицкий проспект","x":40.52183171,"y":64.55186423}},{"type":"Feature","geometry":{"type":"Point","coordinates":[40.59767699000007,64.47470814000013]},"properties":{"city":"Архангельск","house":"33","id":136763,"name":"Средняя школа №77","post":"163035","street":"Адмирала Макарова","x":40.59767699,"y":64.47470814}},{"type":"Feature","geometry":{"type":"Point","coordinates":[40.527667650000105,64.55568922000008]},"properties":{"city":"Архангельск","house":"261","id":138108,"name":"Перемена, образовательный центр","post":"163001","street":"Ломоносова проспект","x":40.52766765,"y":64.55568922}},{"type":"Feature","geometry":{"type":"Point","coordinates":[40.58674516000014,64.59368428000009]},"properties":{"city":"Архангельск","house":"21","id":138383,"name":"Средняя школа №37, МБОУ","post":"163059","street":"Кировская","x":40.58674516,"y":64.59368428}},{"type":"Feature","geometry":{"type":"Point","coordinates":[40.34546799000008,64.5297753000001]},"properties":{"city":"Архангельск","house":"1","id":138701,"name":"Основная школа № 69 имени А.А. Ефремова","post":"163044","street":"Ленинская","x":40.34546799,"y":64.5297753}},{"type":"Feature","geometry":{"type":"Point","coordinates":[40.55571789000005,64.55457265000007]},"properties":{"city":"Архангельск","house":"30","id":139792,"name":"Учебно-методический и технический центр, ЧОУ ДПО","post":"163051","street":"Тимме","x":40.55571789,"y":64.55457265}},{"type":"Feature","geometry":{"type":"Point","coordinates":[40.5744086600001,64.50856135000006]},"properties":{"city":"Архангельск","house":"9 к3","id":139927,"name":"Открытая сменная школа, МБОУ ОСШ","post":"163035","street":"Дрейера","x":40.57440866,"y":64.50856135}},{"type":"Feature","geometry":{"type":"Point","coordinates":[40.59135611000007,64.60325868000007]},"properties":{"city":"Архангельск","house":"51","id":141196,"name":"Рапсодия, детская школа искусств №5","post":"163059","street":"Партизанская","x":40.59135611,"y":64.60325868}},{"type":"Feature","geometry":{"type":"Point","coordinates":[40.55632753000004,64.5540163900001]},"properties":{"city":"Архангельск","house":"28","id":141563,"name":"ArhRockSchool, музыкальная студия","post":"163051","street":"Тимме","x":40.55632753,"y":64.55401639}},{"type":"Feature","geometry":{"type":"Point","coordinates":[40.59387082000009,64.4976945700001]},"properties":{"city":"Архангельск","house":"12","id":142612,"name":"Средняя школа №77","post":"163035","street":"Дежнёвцев","x":40.59387082,"y":64.49769457}},{"type":"Feature","geometry":{"type":"Point","coordinates":[40.53407361000013,64.54351620000004]},"properties":{"city":"Архангельск","house":"51","id":142720,"name":"Архангельский морской кадетский корпус, ГБОУ","post":"163046","street":"Карла Маркса","x":40.53407361,"y":64.5435162}},{"type":"Feature","geometry":{"type":"Point","coordinates":[40.51539717000004,64.54451590000009]},"properties":{"city":"Архангельск","house":"65","id":144314,"name":"Ястреб, ООО, частная охранная организация","post":"163000","street":"Троицкий проспект","x":40.51539717,"y":64.5445159}},{"type":"Feature","geometry":{"type":"Point","coordinates":[40.55148754000005,64.53447233000004]},"properties":{"city":"Архангельск","house":"31","id":144523,"name":"Boreal, студия йоги и танца","post":"163002","street":"Северодвинская","x":40.55148754,"y":64.53447233}},{"type":"Feature","geometry":{"type":"Point","coordinates":[40.534937150000104,64.5336355500001]},"properties":{"city":"Архангельск","house":"10/1","id":145010,"name":"Профессионал, учебный центр повышения квалификации специалистов строительной отрасли","post":"","street":"Чумбарова-Лучинского проспект","x":40.53493715,"y":64.53363555}},{"type":"Feature","geometry":{"type":"Point","coordinates":[40.529669320000025,64.53434319000011]},"properties":{"city":"Архангельск","house":"19","id":147185,"name":"Mona art studio, центр творческих мастер-классов","post":"163069","street":"Володарского","x":40.52966932,"y":64.53434319}},{"type":"Feature","geometry":{"type":"Point","coordinates":[40.54378963000012,64.52915392000008]},"properties":{"city":"Архангельск","house":"23","id":147250,"name":"Федеральный исследовательский центр комплексного изучения Арктики им. академика Н.П. Лаверова РАН, ФГБНУ","post":"163069","street":"Северной Двины набережная","x":40.54378963,"y":64.52915392}},{"type":"Feature","geometry":{"type":"Point","coordinates":[40.55654172000008,64.5627679400001]},"properties":{"city":"Архангельск","house":"19","id":148906,"name":"Отдел дополнительного образования, Архангельский медицинский колледж","post":"163045","street":"Сибиряковцев проезд","x":40.55654172,"y":64.56276794}},{"type":"Feature","geometry":{"type":"Point","coordinates":[40.523123220000116,64.54732517000011]},"properties":{"city":"Архангельск","house":"209","id":148914,"name":"Центр дополнительного образования детей","post":"163000","street":"Ломоносова проспект","x":40.52312322,"y":64.54732517}},{"type":"Feature","geometry":{"type":"Point","coordinates":[40.630793920000066,64.50436779000012]},"properties":{"city":"Архангельск","house":"4 к1","id":150331,"name":"Средняя школа №95 им. П.Г. Лушева с дошкольным отделением","post":"163011","street":"Сплавная","x":40.63079392,"y":64.50436779}},{"type":"Feature","geometry":{"type":"Point","coordinates":[40.32559595000007,64.5369164900001]},"properties":{"city":"Архангельск","house":"13","id":150335,"name":"Санаторная школа-интернат №2","post":"163044","street":"Лочехина","x":40.32559595,"y":64.53691649}},{"type":"Feature","geometry":{"type":"Point","coordinates":[40.54847965000011,64.53968979000012]},"properties":{"city":"Архангельск","house":"30","id":151863,"name":"Средняя школа №8","post":"163046","street":"Обводный канал проспект","x":40.54847965,"y":64.53968979}},{"type":"Feature","geometry":{"type":"Point","coordinates":[40.55233830000003,64.53558252000008]},"properties":{"city":"Архангельск","house":"34/3","id":151910,"name":"Северный (Арктический) федеральный университет им. М.В. Ломоносова, ФГАОУ ВО","post":"163046","street":"Новгородский проспект","x":40.5523383,"y":64.53558252}},{"type":"Feature","geometry":{"type":"Point","coordinates":[40.61630148000005,64.43104920000007]},"properties":{"city":"Архангельск","house":"3 к2","id":152079,"name":"Средняя школа №34 им. А.И. Клепача","post":"163039","street":"Клепача","x":40.61630148,"y":64.4310492}},{"type":"Feature","geometry":{"type":"Point","coordinates":[40.52246949000009,64.53850189000009]},"properties":{"city":"Архангельск","house":"15","id":152381,"name":"Архангельская санаторная школа-интернат №1, ГБОУ","post":"163000","street":"Карла Либкнехта","x":40.52246949,"y":64.53850189}},{"type":"Feature","geometry":{"type":"Point","coordinates":[40.56652961000011,64.53274430000008]},"properties":{"city":"Архангельск","house":"7","id":153742,"name":"Полиглот, лингвистический центр, САФУ им. М.В. Ломоносова","post":"163002","street":"Смольный Буян","x":40.56652961,"y":64.5327443}},{"type":"Feature","geometry":{"type":"Point","coordinates":[40.51539717000004,64.54451590000009]},"properties":{"city":"Архангельск","house":"65","id":153961,"name":"Inka-центр, кадровый центр","post":"163000","street":"Троицкий проспект","x":40.51539717,"y":64.5445159}},{"type":"Feature","geometry":{"type":"Point","coordinates":[40.59335997000011,64.43253049000006]},"properties":{"city":"Архангельск","house":"10 к1","id":154095,"name":"Средняя школа №93 им. 77-ой Гвардейской Московско-Черниговской стрелковой дивизии с дошкольным отделением","post":"163039","street":"Вторая линия","x":40.59335997,"y":64.43253049}},{"type":"Feature","geometry":{"type":"Point","coordinates":[40.533983670000076,64.53250506000009]},"properties":{"city":"Архангельск","house":"7 к1","id":154168,"name":"Oк, студия английского языка","post":"","street":"Чумбарова-Лучинского проспект","x":40.53398367,"y":64.53250506}},{"type":"Feature","geometry":{"type":"Point","coordinates":[40.574548130000046,64.53944863000005]},"properties":{"city":"Архангельск","house":"68 к3","id":154543,"name":"Северный (Арктический) федеральный университет им. М.В. Ломоносова, ФГАОУ ВО","post":"163060","street":"Урицкого","x":40.57454813,"y":64.53944863}},{"type":"Feature","geometry":{"type":"Point","coordinates":[40.54355448000008,64.65953566000007]},"properties":{"city":"Архангельск","house":"82 к1","id":154709,"name":"Средняя общеобразовательная школа №55 им. А.И. Анощенкова","post":"163025","street":"Пионерская","x":40.54355448,"y":64.65953566}},{"type":"Feature","geometry":{"type":"Point","coordinates":[40.54945270000007,64.54062073000004]},"properties":{"city":"Архангельск","house":"11","id":155562,"name":"Os, студия","post":"163046","street":"Котласская","x":40.5494527,"y":64.54062073}},{"type":"Feature","geometry":{"type":"Point","coordinates":[40.631951390000076,64.4558979400001]},"properties":{"city":"Архангельск","house":"12","id":155878,"name":"Средняя общеобразовательная школа №82","post":"163038","street":"100 Дивизии","x":40.63195139,"y":64.45589794}},{"type":"Feature","geometry":{"type":"Point","coordinates":[40.56613947000009,64.53028127000007]},"properties":{"city":"Архангельск","house":"2","id":155974,"name":"Северный (Арктический) федеральный университет им. М.В. Ломоносова, ФГАОУ ВО","post":"163002","street":"Ломоносова проспект","x":40.56613947,"y":64.53028127}},{"type":"Feature","geometry":{"type":"Point","coordinates":[40.519485030000105,64.54667538000007]},"properties":{"city":"Архангельск","house":"14","id":156378,"name":"Life way, студия йоги и творчества","post":"163000","street":"Попова","x":40.51948503,"y":64.54667538}},{"type":"Feature","geometry":{"type":"Point","coordinates":[40.51622744000012,64.54473722000003]},"properties":{"city":"Архангельск","house":"67","id":156435,"name":"Эколь, академия красоты","post":"163000","street":"Троицкий проспект","x":40.51622744,"y":64.54473722}},{"type":"Feature","geometry":{"type":"Point","coordinates":[40.546760980000116,64.55752141000006]},"properties":{"city":"Архангельск","house":"188 к1","id":158100,"name":"Средняя школа №2 им. В.Ф. Филиппова","post":"163072","street":"Советских Космонавтов проспект","x":40.54676098,"y":64.55752141}},{"type":"Feature","geometry":{"type":"Point","coordinates":[40.54334462000006,64.65825304000009]},"properties":{"city":"Архангельск","house":"1","id":158277,"name":"Детская школа искусств №2 им. А.П. Загвоздиной, МБУ ДО","post":"163025","street":"Лесотехническая","x":40.54334462,"y":64.65825304}},{"type":"Feature","geometry":{"type":"Point","coordinates":[40.51605615000008,64.54408271000007]},"properties":{"city":"Архангельск","house":"63","id":159225,"name":"English first, НОУ Английская школа","post":"163000","street":"Троицкий проспект","x":40.51605615,"y":64.54408271}},{"type":"Feature","geometry":{"type":"Point","coordinates":[40.560955110000066,64.53220622000009]},"properties":{"city":"Архангельск","house":"17","id":159691,"name":"Всероссийский научно-исследовательский институт рыбного хозяйства и океанографии, ФГБНУ","post":"163002","street":"Урицкого","x":40.56095511,"y":64.53220622}},{"type":"Feature","geometry":{"type":"Point","coordinates":[40.52160721000012,64.54701403000013]},"properties":{"city":"Архангельск","house":"17","id":160298,"name":"Северная Академия, ЧОУ ДПО","post":"163000","street":"Попова","x":40.52160721,"y":64.54701403}},{"type":"Feature","geometry":{"type":"Point","coordinates":[40.52158036000007,64.55503431000005]},"properties":{"city":"Архангельск","house":"119","id":160572,"name":"Фа-диез, школа игры на фортепиано","post":"163001","street":"Троицкий проспект","x":40.52158036,"y":64.55503431}},{"type":"Feature","geometry":{"type":"Point","coordinates":[40.67450864000009,64.51029233000008]},"properties":{"city":"Архангельск","house":"37 к3","id":161054,"name":"Средняя школа №26 им. В.Д. Никитова","post":"163062","street":"Воронина В.И.","x":40.67450864,"y":64.51029233}},{"type":"Feature","geometry":{"type":"Point","coordinates":[40.52793793000011,64.5573451600001]},"properties":{"city":"Архангельск","house":"269","id":161742,"name":"Звучи, школа голоса","post":"163001","street":"Ломоносова проспект","x":40.52793793,"y":64.55734516}},{"type":"Feature","geometry":{"type":"Point","coordinates":[40.50187421000012,64.58020426000007]},"properties":{"city":"Архангельск","house":"15","id":162436,"name":"Соломбальская специальная коррекционная общеобразовательная школа-интернат","post":"163020","street":"Георгия Седова набережная","x":40.50187421,"y":64.58020426}},{"type":"Feature","geometry":{"type":"Point","coordinates":[40.51748121000007,64.55265609000008]},"properties":{"city":"Архангельск","house":"4 к1","id":162454,"name":"Hestia psychology, психологическая студия","post":"163000","street":"Гайдара","x":40.51748121,"y":64.55265609}},{"type":"Feature","geometry":{"type":"Point","coordinates":[40.5515845000001,64.53312572000002]},"properties":{"city":"Архангельск","house":"36","id":163646,"name":"Помор, автономная некоммерческая организация дополнительного профессионального образования","post":"163002","street":"Северодвинская","x":40.5515845,"y":64.53312572}},{"type":"Feature","geometry":{"type":"Point","coordinates":[40.589259920000096,64.59013749000006]},"properties":{"city":"Архангельск","house":"4","id":163685,"name":"Северный (Арктический) федеральный университет им. М.В. Ломоносова, ФГАОУ ВО","post":"163012","street":"Кутузова","x":40.58925992,"y":64.59013749}},{"type":"Feature","geometry":{"type":"Point","coordinates":[40.55526881000008,64.52786963000004]},"properties":{"city":"Архангельск","house":"1","id":164673,"name":"Репетитор, фирма по профессиональной помощи студентам","post":"163002","street":"Урицкого","x":40.55526881,"y":64.52786963}},{"type":"Feature","geometry":{"type":"Point","coordinates":[40.50790661000012,64.58710154000012]},"properties":{"city":"Архангельск","house":"17","id":164916,"name":"Детская школа искусств №2 им. А.П. Загвоздиной, МБУ ДО","post":"163013","street":"Кедрова","x":40.50790661,"y":64.58710154}},{"type":"Feature","geometry":{"type":"Point","coordinates":[40.5181393600001,64.58097117000003]},"properties":{"city":"Архангельск","house":"41","id":165311,"name":"Средняя общеобразовательная школа №52","post":"163020","street":"Маяковского","x":40.51813936,"y":64.58097117}},{"type":"Feature","geometry":{"type":"Point","coordinates":[40.51428627000009,64.5478342700001]},"properties":{"city":"Архангельск","house":"1","id":165356,"name":"Гармония, детская школа искусств №42","post":"163000","street":"Попова","x":40.51428627,"y":64.54783427}},{"type":"Feature","geometry":{"type":"Point","coordinates":[40.55582838000004,64.55513452000008]},"properties":{"city":"Архангельск","house":"42","id":165413,"name":"Scrap-room, мастерская скрапбукинга","post":"163051","street":"Гагарина","x":40.55582838,"y":64.55513452}},{"type":"Feature","geometry":{"type":"Point","coordinates":[40.54312629000002,64.55069924000001]},"properties":{"city":"Архангельск","house":"44/1","id":166052,"name":"Развитие, ООО, учебный центр","post":"163071","street":"Гайдара","x":40.54312629,"y":64.55069924}},{"type":"Feature","geometry":{"type":"Point","coordinates":[40.643819140000154,64.51513428000007]},"properties":{"city":"Архангельск","house":"165 к1","id":166082,"name":"Средняя школа №95 им. П.Г. Лушева с дошкольным отделением","post":"163015","street":"Ленинградский проспект","x":40.64381914,"y":64.51513428}},{"type":"Feature","geometry":{"type":"Point","coordinates":[40.53025738000007,64.56358402000009]},"properties":{"city":"Архангельск","house":"5","id":166189,"name":"Средняя школа №1","post":"163045","street":"Комсомольская","x":40.53025738,"y":64.56358402}},{"type":"Feature","geometry":{"type":"Point","coordinates":[40.566618350000056,64.53083113000008]},"properties":{"city":"Архангельск","house":"3","id":166261,"name":"Северный (Арктический) федеральный университет им. М.В. Ломоносова, ФГАОУ ВО","post":"163002","street":"Смольный Буян","x":40.56661835,"y":64.53083113}},{"type":"Feature","geometry":{"type":"Point","coordinates":[40.43171145000012,64.53860111000006]},"properties":{"city":"Архангельск","house":"85","id":166308,"name":"Средняя школа №70 им. Александра Грина с дошкольным отделением","post":"163017","street":"Кегостровская","x":40.43171145,"y":64.53860111}},{"type":"Feature","geometry":{"type":"Point","coordinates":[40.54396892000004,64.54958644000007]},"properties":{"city":"Архангельск","house":"61","id":166366,"name":"Средняя школа №45, МБОУ","post":"163071","street":"Садовая","x":40.54396892,"y":64.54958644}},{"type":"Feature","geometry":{"type":"Point","coordinates":[40.61931265000008,64.53245917000001]},"properties":{"city":"Архангельск","house":"49","id":167452,"name":"SandLand, студия рисования песком для детей и взрослых","post":"163065","street":"Московский проспект","x":40.61931265,"y":64.53245917}},{"type":"Feature","geometry":{"type":"Point","coordinates":[40.52458842000003,64.54747661000009]},"properties":{"city":"Архангельск","house":"200","id":167969,"name":"Центр лечебного массажа Тимура Огадярова","post":"163000","street":"Ломоносова проспект","x":40.52458842,"y":64.54747661}},{"type":"Feature","geometry":{"type":"Point","coordinates":[40.55582838000004,64.55513452000008]},"properties":{"city":"Архангельск","house":"42","id":168521,"name":"Фабрика, фотостудия","post":"163051","street":"Гагарина","x":40.55582838,"y":64.55513452}},{"type":"Feature","geometry":{"type":"Point","coordinates":[40.57623523000012,64.53061396000004]},"properties":{"city":"Архангельск","house":"18 к2","id":169156,"name":"Средняя школа №36 им. Героя Советского Союза П.В. Усова","post":"163002","street":"Смольный Буян","x":40.57623523,"y":64.53061396}},{"type":"Feature","geometry":{"type":"Point","coordinates":[40.60515714000016,64.52447947000013]},"properties":{"city":"Архангельск","house":"40","id":169192,"name":"Северный (Арктический) федеральный университет им. М.В. Ломоносова, ФГАОУ ВО","post":"163009","street":"Ленинградский проспект","x":40.60515714,"y":64.52447947}},{"type":"Feature","geometry":{"type":"Point","coordinates":[40.515965680000114,64.55032974000008]},"properties":{"city":"Архангельск","house":"109","id":169379,"name":"Федеральный исследовательский центр комплексного изучения Арктики им. академика Н.П. Лаверова РАН, ФГБНУ","post":"163000","street":"Северной Двины набережная","x":40.51596568,"y":64.55032974}},{"type":"Feature","geometry":{"type":"Point","coordinates":[40.61931265000008,64.53245917000001]},"properties":{"city":"Архангельск","house":"49","id":169598,"name":"Лингва плюс, школа английского языка, г. Архангельск","post":"163065","street":"Московский проспект","x":40.61931265,"y":64.53245917}},{"type":"Feature","geometry":{"type":"Point","coordinates":[40.51951677000006,64.54063537000006]},"properties":{"city":"Архангельск","house":"7/1","id":170249,"name":"Гимназия №3 им. К.П. Гемп, МБОУ","post":"163000","street":"Воскресенская","x":40.51951677,"y":64.54063537}},{"type":"Feature","geometry":{"type":"Point","coordinates":[40.550817100000074,64.55234353000006]},"properties":{"city":"Архангельск","house":"63","id":171436,"name":"Титан-Щит, группа охранных предприятий","post":"163071","street":"Гайдара","x":40.5508171,"y":64.55234353}},{"type":"Feature","geometry":{"type":"Point","coordinates":[40.533983670000076,64.53250506000009]},"properties":{"city":"Архангельск","house":"7 к1","id":171677,"name":"Высший балл, образовательный центр","post":"","street":"Чумбарова-Лучинского проспект","x":40.53398367,"y":64.53250506}},{"type":"Feature","geometry":{"type":"Point","coordinates":[40.51567585000006,64.55167319000013]},"properties":{"city":"Архангельск","house":"111","id":172072,"name":"Арктический морской институт им. В.И. Воронина, ФГБОУ ВО Государственный университет морского и речного флота им. адмирала С.О. Макарова","post":"163000","street":"Северной Двины набережная","x":40.51567585,"y":64.55167319}},{"type":"Feature","geometry":{"type":"Point","coordinates":[40.52119865000003,64.55586703000012]},"properties":{"city":"Архангельск","house":"7","id":172400,"name":"Северный государственный медицинский университет, ФГБОУ ВО","post":"163001","street":"Вологодская","x":40.52119865,"y":64.55586703}},{"type":"Feature","geometry":{"type":"Point","coordinates":[40.67734589000001,64.5062592500001]},"properties":{"city":"Архангельск","house":"27 к1","id":172463,"name":"Детская школа искусств №31, МБУ ДО","post":"163057","street":"Воронина В.И.","x":40.67734589,"y":64.50625925}},{"type":"Feature","geometry":{"type":"Point","coordinates":[40.529127410000086,64.53545565000007]},"properties":{"city":"Архангельск","house":"28","id":172486,"name":"Открытая сменная школа, МБОУ ОСШ","post":"","street":"Чумбарова-Лучинского проспект","x":40.52912741,"y":64.53545565}},{"type":"Feature","geometry":{"type":"Point","coordinates":[40.556092670000055,64.5317180400001]},"properties":{"city":"Архангельск","house":"30 к2","id":172875,"name":"Архангельский медицинский колледж","post":"163002","street":"Ломоносова проспект","x":40.55609267,"y":64.53171804}},{"type":"Feature","geometry":{"type":"Point","coordinates":[40.55102764000007,64.52927752000011]},"properties":{"city":"Архангельск","house":"17","id":172924,"name":"Российская Арктика, научно-образовательный центр, САФУ им. М.В. Ломоносова","post":"163002","street":"Северной Двины набережная","x":40.55102764,"y":64.52927752}},{"type":"Feature","geometry":{"type":"Point","coordinates":[40.527667650000105,64.55568922000008]},"properties":{"city":"Архангельск","house":"261","id":174575,"name":"Школа Маяк, семейный клуб","post":"163001","street":"Ломоносова проспект","x":40.52766765,"y":64.55568922}},{"type":"Feature","geometry":{"type":"Point","coordinates":[40.593669200000136,64.59110382000001]},"properties":{"city":"Архангельск","house":"12","id":175275,"name":"Средняя школа №43","post":"163012","street":"Кировская","x":40.5936692,"y":64.59110382}},{"type":"Feature","geometry":{"type":"Point","coordinates":[40.63129404000005,64.5035067700001]},"properties":{"city":"Архангельск","house":"15","id":175411,"name":"Средняя школа №95 им. П.Г. Лушева с дошкольным отделением","post":"163011","street":"Лермонтова","x":40.63129404,"y":64.50350677}},{"type":"Feature","geometry":{"type":"Point","coordinates":[40.567029310000116,64.53779532000003]},"properties":{"city":"Архангельск","house":"47","id":176134,"name":"English Club, кабинет английского языка","post":"163060","street":"Урицкого","x":40.56702931,"y":64.53779532}},{"type":"Feature","geometry":{"type":"Point","coordinates":[40.6139808500001,64.53431090000004]},"properties":{"city":"Архангельск","house":"43 к2","id":176365,"name":"Гимназия № 25, МБОУ","post":"163065","street":"Московский проспект","x":40.61398085,"y":64.5343109}},{"type":"Feature","geometry":{"type":"Point","coordinates":[40.51010985000011,64.57757447000012]},"properties":{"city":"Архангельск","house":"3","id":177015,"name":"Открытая сменная школа, МБОУ ОСШ","post":"163020","street":"Терёхина","x":40.51010985,"y":64.57757447}},{"type":"Feature","geometry":{"type":"Point","coordinates":[40.57755534000008,64.52812214000005]},"properties":{"city":"Архангельск","house":"17","id":178525,"name":"Специальная (коррекционная) общеобразовательная школа №31","post":"163002","street":"Ленинградский проспект","x":40.57755534,"y":64.52812214}},{"type":"Feature","geometry":{"type":"Point","coordinates":[40.54237712000002,64.5334095900001]},"properties":{"city":"Архангельск","house":"80","id":179640,"name":"Средняя школа №9","post":"163046","street":"Ломоносова проспект","x":40.54237712,"y":64.53340959}},{"type":"Feature","geometry":{"type":"Point","coordinates":[40.501383910000115,64.64442924000011]},"properties":{"city":"Архангельск","house":"11","id":179916,"name":"Средняя общеобразовательная школа №54 с дошкольным отделением","post":"163023","street":"Колхозная","x":40.50138391,"y":64.64442924}},{"type":"Feature","geometry":{"type":"Point","coordinates":[40.527955270000085,64.53496384000005]},"properties":{"city":"Архангельск","house":"33","id":180355,"name":"Детская школа народных ремесел, ГБОУ ДО","post":"","street":"Чумбарова-Лучинского проспект","x":40.52795527,"y":64.53496384}},{"type":"Feature","geometry":{"type":"Point","coordinates":[40.56541555000011,64.53143522000008]},"properties":{"city":"Архангельск","house":"3 к1","id":180884,"name":"Северный (Арктический) федеральный университет им. М.В. Ломоносова, ФГАОУ ВО","post":"163002","street":"Смольный Буян","x":40.56541555,"y":64.53143522}},{"type":"Feature","geometry":{"type":"Point","coordinates":[40.52793793000011,64.5573451600001]},"properties":{"city":"Архангельск","house":"269","id":181045,"name":"Северная театральная эстрадно-цирковая школа, ЧОУ ДО","post":"163001","street":"Ломоносова проспект","x":40.52793793,"y":64.55734516}},{"type":"Feature","geometry":{"type":"Point","coordinates":[40.51687658000002,64.5426706100001]},"properties":{"city":"Архангельск","house":"94","id":181232,"name":"Интерконтакт, студия иностранных языков","post":"163000","street":"Троицкий проспект","x":40.51687658,"y":64.54267061}},{"type":"Feature","geometry":{"type":"Point","coordinates":[40.551729370000075,64.53033615000007]},"properties":{"city":"Архангельск","house":"39 к1","id":181605,"name":"Северный (Арктический) федеральный университет им. М.В. Ломоносова, ФГАОУ ВО","post":"163002","street":"Ломоносова проспект","x":40.55172937,"y":64.53033615}},{"type":"Feature","geometry":{"type":"Point","coordinates":[40.683470220000046,64.51366641000008]},"properties":{"city":"Архангельск","house":"30 к4","id":181856,"name":"Техникум строительства и городского хозяйства","post":"163062","street":"Воронина В.И.","x":40.68347022,"y":64.51366641}},{"type":"Feature","geometry":{"type":"Point","coordinates":[40.5259560200001,64.56122059000006]},"properties":{"city":"Архангельск","house":"124","id":183197,"name":"Северный государственный медицинский университет, ФГБОУ ВО","post":"163001","street":"Северной Двины набережная","x":40.52595602,"y":64.56122059}},{"type":"Feature","geometry":{"type":"Point","coordinates":[40.5352797900001,64.64205828000003]},"properties":{"city":"Архангельск","house":"7","id":183774,"name":"Архангельский техникум водных магистралей им. С.Н. Орешкова, ГАПОУ","post":"163022","street":"Юности","x":40.53527979,"y":64.64205828}},{"type":"Feature","geometry":{"type":"Point","coordinates":[40.51687658000002,64.5426706100001]},"properties":{"city":"Архангельск","house":"94","id":183833,"name":"Синергия, Московский финансово-промышленный университет, НОЧУ ВО Синергия","post":"163000","street":"Троицкий проспект","x":40.51687658,"y":64.54267061}},{"type":"Feature","geometry":{"type":"Point","coordinates":[40.54952753000007,64.5635156700001]},"properties":{"city":"Архангельск","house":"2 к3","id":184083,"name":"Северный государственный медицинский университет, ФГБОУ ВО","post":"163045","street":"Сибиряковцев проезд","x":40.54952753,"y":64.56351567}},{"type":"Feature","geometry":{"type":"Point","coordinates":[40.53582646000008,64.53928868000008]},"properties":{"city":"Архангельск","house":"69","id":184318,"name":"Средняя общеобразовательная школа №22","post":"163046","street":"Советских Космонавтов проспект","x":40.53582646,"y":64.53928868}},{"type":"Feature","geometry":{"type":"Point","coordinates":[40.67032108000011,64.51137829000008]},"properties":{"city":"Архангельск","house":"9 к1","id":184324,"name":"Высший балл, образовательный центр","post":"163062","street":"Никитова","x":40.67032108,"y":64.51137829}},{"type":"Feature","geometry":{"type":"Point","coordinates":[40.52217274000005,64.54542180000004]},"properties":{"city":"Архангельск","house":"199","id":185268,"name":"Кодология, школа программирования","post":"163000","street":"Ломоносова проспект","x":40.52217274,"y":64.5454218}},{"type":"Feature","geometry":{"type":"Point","coordinates":[40.67955920000011,64.51302683000007]},"properties":{"city":"Архангельск","house":"30 к1","id":185425,"name":"Архангельский техникум строительства и экономики, ГБПОУ","post":"163062","street":"Воронина В.И.","x":40.6795592,"y":64.51302683}},{"type":"Feature","geometry":{"type":"Point","coordinates":[40.5795896500001,64.60283105000009]},"properties":{"city":"Архангельск","house":"43","id":186001,"name":"Многопрофильный колледж, ГБПОУ Архангельский государственный многопрофильный колледж","post":"163059","street":"Ильича","x":40.57958965,"y":64.60283105}},{"type":"Feature","geometry":{"type":"Point","coordinates":[40.53424139000008,64.54090522000008]},"properties":{"city":"Архангельск","house":"82","id":186599,"name":"Oк, студия английского языка","post":"163046","street":"Советских Космонавтов проспект","x":40.53424139,"y":64.54090522}},{"type":"Feature","geometry":{"type":"Point","coordinates":[40.52670680000014,64.53417250000007]},"properties":{"city":"Архангельск","house":"20","id":187043,"name":"SISSTERS, кибершкола для девочек","post":"163069","street":"Троицкий проспект","x":40.5267068,"y":64.5341725}},{"type":"Feature","geometry":{"type":"Point","coordinates":[40.531593570000084,64.53494439000009]},"properties":{"city":"Архангельск","house":"12","id":187638,"name":"Архангельский техникум строительства и экономики, ГБПОУ","post":"163069","street":"Володарского","x":40.53159357,"y":64.53494439}},{"type":"Feature","geometry":{"type":"Point","coordinates":[40.350822710000074,64.52776672000007]},"properties":{"city":"Архангельск","house":"2 к2","id":189591,"name":"Детская школа искусств №48, МБУ ДО","post":"163044","street":"Севстрой","x":40.35082271,"y":64.52776672}},{"type":"Feature","geometry":{"type":"Point","coordinates":[40.62156543000004,64.53516658000007]},"properties":{"city":"Архангельск","house":"25 к1","id":189804,"name":"Архангельская средняя общеобразовательная школа Соловецких юнг","post":"163065","street":"Прокопия Галушина","x":40.62156543,"y":64.53516658}},{"type":"Feature","geometry":{"type":"Point","coordinates":[40.523123220000116,64.54732517000011]},"properties":{"city":"Архангельск","house":"209","id":190568,"name":"Учебный центр Федерации профсоюзов Архангельской области, ЧОУ ДПО","post":"163000","street":"Ломоносова проспект","x":40.52312322,"y":64.54732517}},{"type":"Feature","geometry":{"type":"Point","coordinates":[40.56173812000006,64.53685511000009]},"properties":{"city":"Архангельск","house":"12","id":190740,"name":"Архангельский торгово-экономический колледж, ГАПОУ","post":"163060","street":"Обводный канал проспект","x":40.56173812,"y":64.53685511}},{"type":"Feature","geometry":{"type":"Point","coordinates":[40.563279590000064,64.53653082000008]},"properties":{"city":"Архангельск","house":"10","id":190862,"name":"Музыкант, учебный репетиторский центр","post":"163060","street":"Обводный канал проспект","x":40.56327959,"y":64.53653082}},{"type":"Feature","geometry":{"type":"Point","coordinates":[40.68149972000004,64.50100688000005]},"properties":{"city":"Архангельск","house":"322","id":191177,"name":"Северный (Арктический) федеральный университет им. М.В. Ломоносова, ФГАОУ ВО","post":"163030","street":"Ленинградский проспект","x":40.68149972,"y":64.50100688}},{"type":"Feature","geometry":{"type":"Point","coordinates":[40.52217274000005,64.54542180000004]},"properties":{"city":"Архангельск","house":"199","id":191394,"name":"Учи.ру, кружок занимательной математики","post":"163000","street":"Ломоносова проспект","x":40.52217274,"y":64.5454218}},{"type":"Feature","geometry":{"type":"Point","coordinates":[40.57645789000009,64.60106333000009]},"properties":{"city":"Архангельск","house":"41","id":191747,"name":"Северный техникум транспорта и технологий","post":"163059","street":"Ильича","x":40.57645789,"y":64.60106333}},{"type":"Feature","geometry":{"type":"Point","coordinates":[40.56542792000009,64.53623095000006]},"properties":{"city":"Архангельск","house":"43","id":191840,"name":"Институт управления, ЧОУ ВО","post":"163060","street":"Урицкого","x":40.56542792,"y":64.53623095}},{"type":"Feature","geometry":{"type":"Point","coordinates":[40.55582838000004,64.55513452000008]},"properties":{"city":"Архангельск","house":"42","id":191990,"name":"Творческое пространство","post":"163051","street":"Гагарина","x":40.55582838,"y":64.55513452}},{"type":"Feature","geometry":{"type":"Point","coordinates":[40.49912617000007,64.61340922000008]},"properties":{"city":"Архангельск","house":"22","id":192317,"name":"Средняя школа № 68 с дошкольным отделением","post":"163021","street":"Маслова","x":40.49912617,"y":64.61340922}},{"type":"Feature","geometry":{"type":"Point","coordinates":[40.587417450000075,64.60136624000002]},"properties":{"city":"Архангельск","house":"47 к3","id":192584,"name":"Многопрофильный колледж, ГБПОУ Архангельский государственный многопрофильный колледж","post":"163059","street":"Партизанская","x":40.58741745,"y":64.60136624}},{"type":"Feature","geometry":{"type":"Point","coordinates":[40.50223225000012,64.57564370000004]},"properties":{"city":"Архангельск","house":"2 к3","id":192907,"name":"Speak it Up, репетиторский центр","post":"163020","street":"Беломорской Военной Флотилии","x":40.50223225,"y":64.5756437}},{"type":"Feature","geometry":{"type":"Point","coordinates":[40.56353963000007,64.52837663000007]},"properties":{"city":"Архангельск","house":"13","id":194958,"name":"ВундерКит, детский развивающий центр, ООО Вундеркинд","post":"163002","street":"Ломоносова проспект","x":40.56353963,"y":64.52837663}},{"type":"Feature","geometry":{"type":"Point","coordinates":[40.5795896500001,64.60283105000009]},"properties":{"city":"Архангельск","house":"43","id":195013,"name":"Надежда, центр психолого-медико-социального сопровождения для детей","post":"163059","street":"Ильича","x":40.57958965,"y":64.60283105}}],"type":"FeatureCollection"}