{"features":[{"type":"Feature","geometry":{"type":"Point","coordinates":[39.78059915000009,64.55791398000014]},"properties":{"city":"Северодвинск (Северодвинск городской округ)","house":"36а","id":224,"name":"Северный (Арктический) федеральный университет им. М.В. Ломоносова, ФГАОУ ВО","post":"164512","street":"Карла Маркса","x":39.78059915,"y":64.55791398}},{"type":"Feature","geometry":{"type":"Point","coordinates":[39.846577280000105,64.57597857000006]},"properties":{"city":"Северодвинск (Северодвинск городской округ)","house":"1 к1","id":4947,"name":"Северодвинский технический колледж, филиал САФУ им. М.В. Ломоносова","post":"164520","street":"Железнодорожная","x":39.84657728,"y":64.57597857}},{"type":"Feature","geometry":{"type":"Point","coordinates":[39.81342180000012,64.55708395000008]},"properties":{"city":"Северодвинск (Северодвинск городской округ)","house":"27а","id":9025,"name":"Северный кванториум, МАОУ ДО","post":"164504","street":"Капитана Воронина","x":39.8134218,"y":64.55708395}},{"type":"Feature","geometry":{"type":"Point","coordinates":[39.83108119000011,64.55590280000011]},"properties":{"city":"Северодвинск (Северодвинск городской округ)","house":"42","id":9946,"name":"Северный (Арктический) федеральный университет им. М.В. Ломоносова, ФГАОУ ВО","post":"164507","street":"Ленина проспект","x":39.83108119,"y":64.5559028}},{"type":"Feature","geometry":{"type":"Point","coordinates":[39.83775960000004,64.56360207000012]},"properties":{"city":"Северодвинск (Северодвинск городской округ)","house":"11а","id":13632,"name":"Korel`ski, гончарная мастерская","post":"164520","street":"Профсоюзная","x":39.8377596,"y":64.56360207}},{"type":"Feature","geometry":{"type":"Point","coordinates":[39.81985704000006,64.5414717400001]},"properties":{"city":"Северодвинск (Северодвинск городской округ)","house":"17","id":15228,"name":"Средняя общеобразовательная школа №28, г. Северодвинск","post":"164505","street":"Юбилейная","x":39.81985704,"y":64.54147174}},{"type":"Feature","geometry":{"type":"Point","coordinates":[39.784392750000045,64.55618954000003]},"properties":{"city":"Северодвинск (Северодвинск городской округ)","house":"33","id":20558,"name":"BRIGHT, образовательный центр","post":"164512","street":"Карла Маркса","x":39.78439275,"y":64.55618954}},{"type":"Feature","geometry":{"type":"Point","coordinates":[39.791538820000035,64.55514278000004]},"properties":{"city":"Северодвинск (Северодвинск городской округ)","house":"15","id":21540,"name":"Средняя общеобразовательная школа № 21 им. Героя Советского Союза А.Д. Юдина, МАОУ","post":"164500","street":"Серго Орджоникидзе","x":39.79153882,"y":64.55514278}},{"type":"Feature","geometry":{"type":"Point","coordinates":[39.80667055000006,64.5620472400001]},"properties":{"city":"Северодвинск (Северодвинск городской округ)","house":"9","id":22565,"name":"Северодвинская специальная (коррекционная) общеобразовательная школа-интернат","post":"164504","street":"Капитана Воронина","x":39.80667055,"y":64.56204724}},{"type":"Feature","geometry":{"type":"Point","coordinates":[39.762356510000124,64.55163061000005]},"properties":{"city":"Северодвинск (Северодвинск городской округ)","house":"3","id":25238,"name":"Непоседы, детский развивающий центр","post":"164522","street":"Трухинова","x":39.76235651,"y":64.55163061}},{"type":"Feature","geometry":{"type":"Point","coordinates":[39.807625940000065,64.55639071000007]},"properties":{"city":"Северодвинск (Северодвинск городской округ)","house":"36","id":31056,"name":"Непоседы, детский развивающий центр","post":"164504","street":"Капитана Воронина","x":39.80762594,"y":64.55639071}},{"type":"Feature","geometry":{"type":"Point","coordinates":[39.84514588000011,64.55732386000011]},"properties":{"city":"Северодвинск (Северодвинск городской округ)","house":"43а","id":31909,"name":"Средняя общеобразовательная школа №11, МАОУ, г. Северодвинск","post":"164521","street":"Строителей","x":39.84514588,"y":64.55732386}},{"type":"Feature","geometry":{"type":"Point","coordinates":[39.84597317000009,64.56993127000007]},"properties":{"city":"Северодвинск (Северодвинск городской округ)","house":"6","id":32075,"name":"Северный (Арктический) федеральный университет им. М.В. Ломоносова, ФГАОУ ВО","post":"164520","street":"Торцева","x":39.84597317,"y":64.56993127}},{"type":"Feature","geometry":{"type":"Point","coordinates":[39.7982405300001,64.56297927000006]},"properties":{"city":"Северодвинск (Северодвинск городской округ)","house":"7","id":32552,"name":"Северный (Арктический) федеральный университет им. М.В. Ломоносова, ФГАОУ ВО","post":"164500","street":"Труда проспект","x":39.79824053,"y":64.56297927}},{"type":"Feature","geometry":{"type":"Point","coordinates":[39.80180021000006,64.5622618000001]},"properties":{"city":"Северодвинск (Северодвинск городской округ)","house":"6а к1","id":33974,"name":"Северный (Арктический) федеральный университет им. М.В. Ломоносова, ФГАОУ ВО","post":"164500","street":"Капитана Воронина","x":39.80180021,"y":64.5622618}},{"type":"Feature","geometry":{"type":"Point","coordinates":[39.83126213000006,64.56122018000008]},"properties":{"city":"Северодвинск (Северодвинск городской округ)","house":"24в","id":34582,"name":"Северодвинский техникум электромонтажа и связи","post":"164501","street":"Полярная","x":39.83126213,"y":64.56122018}},{"type":"Feature","geometry":{"type":"Point","coordinates":[39.81634692000007,64.56466447000012]},"properties":{"city":"Северодвинск (Северодвинск городской округ)","house":"59","id":36498,"name":"Северодвинская гимназия №14, МАОУ","post":"164501","street":"Торцева","x":39.81634692,"y":64.56466447}},{"type":"Feature","geometry":{"type":"Point","coordinates":[39.84063353000012,64.57001052000005]},"properties":{"city":"Северодвинск (Северодвинск городской округ)","house":"22","id":36696,"name":"Гуманитарная гимназия №8","post":"164520","street":"Беломорский проспект","x":39.84063353,"y":64.57001052}},{"type":"Feature","geometry":{"type":"Point","coordinates":[39.834752400000106,64.55356966000011]},"properties":{"city":"Северодвинск (Северодвинск городской округ)","house":"47","id":38163,"name":"Северодвинский Дворец Молодежи (Строитель), МАУК, открытая площадка для обучения первоначальным навыкам вождения","post":"164507","street":"Ленина проспект","x":39.8347524,"y":64.55356966}},{"type":"Feature","geometry":{"type":"Point","coordinates":[39.785345880000115,64.54370333000001]},"properties":{"city":"Северодвинск (Северодвинск городской округ)","house":"20","id":41732,"name":"Северодвинский техникум социальной инфраструктуры","post":"164515","street":"Советских Космонавтов","x":39.78534588,"y":64.54370333}},{"type":"Feature","geometry":{"type":"Point","coordinates":[39.78242405000006,64.54951697000011]},"properties":{"city":"Северодвинск (Северодвинск городской округ)","house":"83","id":42687,"name":"Средняя общеобразовательная школа №6 с углубленным изучением иностранных языков","post":"164515","street":"Ломоносова","x":39.78242405,"y":64.54951697}},{"type":"Feature","geometry":{"type":"Point","coordinates":[39.834752400000106,64.55356966000011]},"properties":{"city":"Северодвинск (Северодвинск городской округ)","house":"47","id":42883,"name":"И сыграем, и споём, ансамбль","post":"164507","street":"Ленина проспект","x":39.8347524,"y":64.55356966}},{"type":"Feature","geometry":{"type":"Point","coordinates":[39.833593170000036,64.55170318000012]},"properties":{"city":"Северодвинск (Северодвинск городской округ)","house":"автодром","id":44540,"name":"Северодвинский Дворец Молодежи (Строитель), МАУК, открытая площадка для обучения первоначальным навыкам вождения","post":"164507","street":"Ленина проспект","x":39.83359317,"y":64.55170318}},{"type":"Feature","geometry":{"type":"Point","coordinates":[39.79992352000007,64.55563634000002]},"properties":{"city":"Северодвинск (Северодвинск городской округ)","house":"40","id":46080,"name":"Синергия, Московский финансово-промышленный университет, НОЧУ ВО Синергия","post":"164500","street":"Труда проспект","x":39.79992352,"y":64.55563634}},{"type":"Feature","geometry":{"type":"Point","coordinates":[39.79037624000009,64.53513645000004]},"properties":{"city":"Северодвинск (Северодвинск городской округ)","house":"84","id":47049,"name":"Институт судебных экспертиз и криминалистики","post":"164502","street":"Победы проспект","x":39.79037624,"y":64.53513645}},{"type":"Feature","geometry":{"type":"Point","coordinates":[39.834752400000106,64.55356966000011]},"properties":{"city":"Северодвинск (Северодвинск городской округ)","house":"47","id":47467,"name":"Северодвинский центр высшего водительского мастерства","post":"164507","street":"Ленина проспект","x":39.8347524,"y":64.55356966}},{"type":"Feature","geometry":{"type":"Point","coordinates":[39.80709226000003,64.59640956000008]},"properties":{"city":"Северодвинск (Северодвинск городской округ)","house":"13а","id":47596,"name":"Средняя общеобразовательная школа №24 с дошкольным отделением","post":"164509","street":"Логинова","x":39.80709226,"y":64.59640956}},{"type":"Feature","geometry":{"type":"Point","coordinates":[39.81701298000014,64.55397304000007]},"properties":{"city":"Северодвинск (Северодвинск городской округ)","house":"1а","id":48759,"name":"Северодвинский техникум электромонтажа и связи","post":"164504","street":"Чехова","x":39.81701298,"y":64.55397304}},{"type":"Feature","geometry":{"type":"Point","coordinates":[39.807968300000006,64.55831526000006]},"properties":{"city":"Северодвинск (Северодвинск городской округ)","house":"24","id":48766,"name":"Лицей №17","post":"164504","street":"Капитана Воронина","x":39.8079683,"y":64.55831526}},{"type":"Feature","geometry":{"type":"Point","coordinates":[39.85086702000006,64.55626470000004]},"properties":{"city":"Северодвинск (Северодвинск городской округ)","house":"76","id":49862,"name":"Архангельский медицинский колледж","post":"164521","street":"Беломорский проспект","x":39.85086702,"y":64.5562647}},{"type":"Feature","geometry":{"type":"Point","coordinates":[39.80190767000012,64.5570433500001]},"properties":{"city":"Северодвинск (Северодвинск городской округ)","house":"25","id":51907,"name":"Специальная (коррекционная) общеобразовательная школа №15","post":"164500","street":"Труда проспект","x":39.80190767,"y":64.55704335}},{"type":"Feature","geometry":{"type":"Point","coordinates":[39.842095380000046,64.56401873000007]},"properties":{"city":"Северодвинск (Северодвинск городской округ)","house":"14а","id":52439,"name":"Ok, студия английского языка","post":"164520","street":"Пионерская","x":39.84209538,"y":64.56401873}},{"type":"Feature","geometry":{"type":"Point","coordinates":[39.80509236000006,64.59978665000008]},"properties":{"city":"Северодвинск (Северодвинск городской округ)","house":"11а","id":54057,"name":"Непоседы, детский развивающий центр","post":"164524","street":"Дзержинского","x":39.80509236,"y":64.59978665}},{"type":"Feature","geometry":{"type":"Point","coordinates":[39.840154930000054,64.56077458000009]},"properties":{"city":"Северодвинск (Северодвинск городской округ)","house":"21","id":55014,"name":"Office","post":"164521","street":"Профсоюзная","x":39.84015493,"y":64.56077458}},{"type":"Feature","geometry":{"type":"Point","coordinates":[39.81441487000007,64.59477353000008]},"properties":{"city":"Северодвинск (Северодвинск городской округ)","house":"4","id":57637,"name":"Детская школа искусств №34, МБУ ДО","post":"164509","street":"Гоголя","x":39.81441487,"y":64.59477353}},{"type":"Feature","geometry":{"type":"Point","coordinates":[39.842095380000046,64.56401873000007]},"properties":{"city":"Северодвинск (Северодвинск городской округ)","house":"14а","id":58848,"name":"Северодвинский колледж управления и информационных технологий","post":"164520","street":"Пионерская","x":39.84209538,"y":64.56401873}},{"type":"Feature","geometry":{"type":"Point","coordinates":[39.8546670700001,64.56069624000004]},"properties":{"city":"Северодвинск (Северодвинск городской округ)","house":"6а","id":61126,"name":"Ступени, учебный центр, г. Северодвинск","post":"164521","street":"Комсомольская","x":39.85466707,"y":64.56069624}},{"type":"Feature","geometry":{"type":"Point","coordinates":[39.835178150000054,64.56185235000005]},"properties":{"city":"Северодвинск (Северодвинск городской округ)","house":"35а","id":61751,"name":"Северодвинский техникум электромонтажа и связи","post":"164520","street":"Индустриальная","x":39.83517815,"y":64.56185235}},{"type":"Feature","geometry":{"type":"Point","coordinates":[39.79412710000009,64.56026426000007]},"properties":{"city":"Северодвинск (Северодвинск городской округ)","house":"24а","id":62556,"name":"Северный кванториум, МАОУ ДО","post":"164500","street":"Карла Маркса","x":39.7941271,"y":64.56026426}},{"type":"Feature","geometry":{"type":"Point","coordinates":[39.856858800000026,64.56673009000008]},"properties":{"city":"Северодвинск (Северодвинск городской округ)","house":"21в","id":64656,"name":"Средняя общеобразовательная школа №3 им. Героя Советского Союза К.М. Трухинова, МАОУ","post":"164520","street":"Железнодорожная","x":39.8568588,"y":64.56673009}},{"type":"Feature","geometry":{"type":"Point","coordinates":[39.80348910000006,64.55936939000004]},"properties":{"city":"Северодвинск (Северодвинск городской округ)","house":"13а","id":64782,"name":"Северный (Арктический) федеральный университет им. М.В. Ломоносова, ФГАОУ ВО","post":"164500","street":"Карла Маркса","x":39.8034891,"y":64.55936939}},{"type":"Feature","geometry":{"type":"Point","coordinates":[39.82118328000011,64.55914362000001]},"properties":{"city":"Северодвинск (Северодвинск городской округ)","house":"60","id":67347,"name":"Северодвинский техникум электромонтажа и связи","post":"164501","street":"Лесная","x":39.82118328,"y":64.55914362}},{"type":"Feature","geometry":{"type":"Point","coordinates":[39.77377503000003,64.54786835000004]},"properties":{"city":"Северодвинск (Северодвинск городской округ)","house":"30","id":72274,"name":"Образовательный центр им. святых Кирилла и Мефодия","post":"164515","street":"Морской проспект","x":39.77377503,"y":64.54786835}},{"type":"Feature","geometry":{"type":"Point","coordinates":[39.794185440000085,64.54092567000006]},"properties":{"city":"Северодвинск (Северодвинск городской округ)","house":"3","id":75947,"name":"Средняя общеобразовательная школа №13, г. Северодвинск","post":"164502","street":"Кирилкина","x":39.79418544,"y":64.54092567}},{"type":"Feature","geometry":{"type":"Point","coordinates":[39.79676800000003,64.54004890000007]},"properties":{"city":"Северодвинск (Северодвинск городской округ)","house":"10а","id":76406,"name":"Средняя общеобразовательная школа №13, г. Северодвинск","post":"164502","street":"Лебедева","x":39.796768,"y":64.5400489}},{"type":"Feature","geometry":{"type":"Point","coordinates":[39.813005370000084,64.58834067000001]},"properties":{"city":"Северодвинск (Северодвинск городской округ)","house":"6","id":80948,"name":"Северодвинский техникум судостроения и судоремонта, ГБПОУ","post":"164509","street":"Машиностроителей проезд","x":39.81300537,"y":64.58834067}},{"type":"Feature","geometry":{"type":"Point","coordinates":[39.784392750000045,64.55618954000003]},"properties":{"city":"Северодвинск (Северодвинск городской округ)","house":"33","id":83592,"name":"Средняя общеобразовательная школа №22, МАОУ, г. Северодвинск","post":"164512","street":"Карла Маркса","x":39.78439275,"y":64.55618954}},{"type":"Feature","geometry":{"type":"Point","coordinates":[39.86219789000009,64.55807096000008]},"properties":{"city":"Северодвинск (Северодвинск городской округ)","house":"45","id":91692,"name":"Каскара, музыкальная студия","post":"164521","street":"Железнодорожная","x":39.86219789,"y":64.55807096}},{"type":"Feature","geometry":{"type":"Point","coordinates":[39.8028407100001,64.56288216000013]},"properties":{"city":"Северодвинск (Северодвинск городской округ)","house":"6 ст2","id":92719,"name":"Северный (Арктический) федеральный университет им. М.В. Ломоносова, ФГАОУ ВО","post":"164500","street":"Капитана Воронина","x":39.80284071,"y":64.56288216}},{"type":"Feature","geometry":{"type":"Point","coordinates":[39.84283306000009,64.57693338000006]},"properties":{"city":"Северодвинск (Северодвинск городской округ)","house":"36","id":93271,"name":"Северодвинский технический колледж, филиал САФУ им. М.В. Ломоносова","post":"164520","street":"Архангельское шоссе","x":39.84283306,"y":64.57693338}},{"type":"Feature","geometry":{"type":"Point","coordinates":[39.82477946000006,64.56688994000005]},"properties":{"city":"Северодвинск (Северодвинск городской округ)","house":"28а","id":94132,"name":"Филиппок, изостудия","post":"164501","street":"Торцева","x":39.82477946,"y":64.56688994}},{"type":"Feature","geometry":{"type":"Point","coordinates":[39.83284632000004,64.56500245000008]},"properties":{"city":"Северодвинск (Северодвинск городской округ)","house":"35Б","id":94281,"name":"Центр психолого-педагогической, медицинской и социальной помощи, МБОУ","post":"164520","street":"Советская","x":39.83284632,"y":64.56500245}},{"type":"Feature","geometry":{"type":"Point","coordinates":[39.81579551000009,64.60400126000012]},"properties":{"city":"Северодвинск (Северодвинск городской округ)","house":"31","id":100979,"name":"Средняя общеобразовательная школа №19, МАОУ","post":"164524","street":"Октябрьская","x":39.81579551,"y":64.60400126}},{"type":"Feature","geometry":{"type":"Point","coordinates":[39.83954434000003,64.57261880000013]},"properties":{"city":"Северодвинск (Северодвинск городской округ)","house":"8","id":102823,"name":"Техникум строительства, дизайна и технологий, ГАПОУ","post":"164520","street":"Беломорский проспект","x":39.83954434,"y":64.5726188}},{"type":"Feature","geometry":{"type":"Point","coordinates":[39.8573371600001,64.56184987000006]},"properties":{"city":"Северодвинск (Северодвинск городской округ)","house":"33","id":103211,"name":"Техникум строительства, дизайна и технологий, ГАПОУ","post":"164500","street":"Железнодорожная","x":39.85733716,"y":64.56184987}},{"type":"Feature","geometry":{"type":"Point","coordinates":[39.81676225000009,64.55891546000004]},"properties":{"city":"Северодвинск (Северодвинск городской округ)","house":"15","id":103230,"name":"Средняя общеобразовательная школа №12, МБОУ, г. Северодвинск","post":"164504","street":"Гагарина","x":39.81676225,"y":64.55891546}},{"type":"Feature","geometry":{"type":"Point","coordinates":[39.8546670700001,64.56069624000004]},"properties":{"city":"Северодвинск (Северодвинск городской округ)","house":"6а","id":104884,"name":"Палитра знаний, студия английского и французского языков","post":"164521","street":"Комсомольская","x":39.85466707,"y":64.56069624}},{"type":"Feature","geometry":{"type":"Point","coordinates":[39.78461622000004,64.55786700000009]},"properties":{"city":"Северодвинск (Северодвинск городской округ)","house":"34а","id":106300,"name":"Техникум судостроения и машиностроения, ГБПОУ","post":"164512","street":"Карла Маркса","x":39.78461622,"y":64.557867}},{"type":"Feature","geometry":{"type":"Point","coordinates":[39.819852860000054,64.5658959000001]},"properties":{"city":"Северодвинск (Северодвинск городской округ)","house":"36","id":108561,"name":"Средняя общеобразовательная школа №9, МАОУ, г. Северодвинск","post":"164501","street":"Торцева","x":39.81985286,"y":64.5658959}},{"type":"Feature","geometry":{"type":"Point","coordinates":[39.8038939200001,64.56305411000002]},"properties":{"city":"Северодвинск (Северодвинск городской округ)","house":"6","id":113476,"name":"Лицей академии Яндекса","post":"164500","street":"Капитана Воронина","x":39.80389392,"y":64.56305411}},{"type":"Feature","geometry":{"type":"Point","coordinates":[39.796001820000065,64.5583836400001]},"properties":{"city":"Северодвинск (Северодвинск городской округ)","house":"21","id":117073,"name":"Ok, студия английского языка","post":"164500","street":"Карла Маркса","x":39.79600182,"y":64.55838364}},{"type":"Feature","geometry":{"type":"Point","coordinates":[39.8085159000001,64.53969275000006]},"properties":{"city":"Северодвинск (Северодвинск городской округ)","house":"44а","id":117893,"name":"Ok, студия английского языка","post":"164502","street":"Победы проспект","x":39.8085159,"y":64.53969275}},{"type":"Feature","geometry":{"type":"Point","coordinates":[39.79040676000012,64.56082106000014]},"properties":{"city":"Северодвинск (Северодвинск городской округ)","house":"14а","id":120757,"name":"Средняя общеобразовательная школа №23","post":"164500","street":"Труда проспект","x":39.79040676,"y":64.56082106}},{"type":"Feature","geometry":{"type":"Point","coordinates":[39.80509236000006,64.59978665000008]},"properties":{"city":"Северодвинск (Северодвинск городской округ)","house":"11а","id":123008,"name":"Средняя общеобразовательная школа №24 с дошкольным отделением","post":"164524","street":"Дзержинского","x":39.80509236,"y":64.59978665}},{"type":"Feature","geometry":{"type":"Point","coordinates":[39.80509898000005,64.5375372500001]},"properties":{"city":"Северодвинск (Северодвинск городской округ)","house":"58","id":124768,"name":"Креатив, студия развития творческих способностей","post":"164502","street":"Победы проспект","x":39.80509898,"y":64.53753725}},{"type":"Feature","geometry":{"type":"Point","coordinates":[39.79013414000012,64.55834537000004]},"properties":{"city":"Северодвинск (Северодвинск городской округ)","house":"30","id":125745,"name":"Hestia psychology, психологическая студия","post":"164500","street":"Карла Маркса","x":39.79013414,"y":64.55834537}},{"type":"Feature","geometry":{"type":"Point","coordinates":[39.8224201400001,64.59809275000008]},"properties":{"city":"Северодвинск (Северодвинск городской округ)","house":"2","id":128888,"name":"Северодвинский техникум судостроения и судоремонта, ГБПОУ","post":"164509","street":"Октябрьская","x":39.82242014,"y":64.59809275}},{"type":"Feature","geometry":{"type":"Point","coordinates":[39.78394470000011,64.54657534000003]},"properties":{"city":"Северодвинск (Северодвинск городской округ)","house":"35","id":130855,"name":"Титан-Щит, группа охранных предприятий","post":"164515","street":"Морской проспект","x":39.7839447,"y":64.54657534}},{"type":"Feature","geometry":{"type":"Point","coordinates":[39.81016109000016,64.55298960000005]},"properties":{"city":"Северодвинск (Северодвинск городской округ)","house":"8","id":135003,"name":"Средняя общеобразовательная школа №16 оборонно-спортивной направленности","post":"164504","street":"Тургенева","x":39.81016109,"y":64.5529896}},{"type":"Feature","geometry":{"type":"Point","coordinates":[39.81147862000008,64.60032917000007]},"properties":{"city":"Северодвинск (Северодвинск городской округ)","house":"23в","id":138356,"name":"Средняя общеобразовательная школа №5, г. Северодвинск","post":"164524","street":"Мира","x":39.81147862,"y":64.60032917}},{"type":"Feature","geometry":{"type":"Point","coordinates":[39.80807347000013,64.5912569700001]},"properties":{"city":"Северодвинск (Северодвинск городской округ)","house":"3","id":141647,"name":"Техникум строительства, дизайна и технологий, ГАПОУ","post":"164509","street":"Свободы","x":39.80807347,"y":64.59125697}},{"type":"Feature","geometry":{"type":"Point","coordinates":[39.85217605000006,64.55916911000004]},"properties":{"city":"Северодвинск (Северодвинск городской округ)","house":"7","id":144373,"name":"Морская кадетская школа, МАОУ","post":"164521","street":"Комсомольская","x":39.85217605,"y":64.55916911}},{"type":"Feature","geometry":{"type":"Point","coordinates":[39.834752400000106,64.55356966000011]},"properties":{"city":"Северодвинск (Северодвинск городской округ)","house":"47","id":144776,"name":"Вокальная студия Владимира Скицкого","post":"164507","street":"Ленина проспект","x":39.8347524,"y":64.55356966}},{"type":"Feature","geometry":{"type":"Point","coordinates":[39.80937924000004,64.60570148000008]},"properties":{"city":"Северодвинск (Северодвинск городской округ)","house":"50","id":144912,"name":"Ягринская гимназия, МАОУ","post":"164524","street":"Приморский бульвар","x":39.80937924,"y":64.60570148}},{"type":"Feature","geometry":{"type":"Point","coordinates":[39.84123411000016,64.56931584000006]},"properties":{"city":"Северодвинск (Северодвинск городской округ)","house":"12","id":146857,"name":"Гуманитарная гимназия №8","post":"164520","street":"Торцева","x":39.84123411,"y":64.56931584}},{"type":"Feature","geometry":{"type":"Point","coordinates":[39.781065510000104,64.5575302100001]},"properties":{"city":"Северодвинск (Северодвинск городской округ)","house":"36","id":149419,"name":"Северный (Арктический) федеральный университет им. М.В. Ломоносова, ФГАОУ ВО","post":"164512","street":"Карла Маркса","x":39.78106551,"y":64.55753021}},{"type":"Feature","geometry":{"type":"Point","coordinates":[39.77262629000017,64.55366690000005]},"properties":{"city":"Северодвинск (Северодвинск городской округ)","house":"12а","id":150926,"name":"Средняя общеобразовательная школа №25","post":"164514","street":"Морской проспект","x":39.77262629,"y":64.5536669}},{"type":"Feature","geometry":{"type":"Point","coordinates":[39.82879303000004,64.57041582000004]},"properties":{"city":"Северодвинск (Северодвинск городской округ)","house":"20 ст5","id":152529,"name":"Инженер, ООО, центр обучения","post":"164520","street":"Первомайская","x":39.82879303,"y":64.57041582}},{"type":"Feature","geometry":{"type":"Point","coordinates":[39.776783590000086,64.53919553000003]},"properties":{"city":"Северодвинск (Северодвинск городской округ)","house":"56","id":154898,"name":"Ok, студия английского языка","post":"164523","street":"Морской проспект","x":39.77678359,"y":64.53919553}},{"type":"Feature","geometry":{"type":"Point","coordinates":[39.784400650000094,64.54400082000008]},"properties":{"city":"Северодвинск (Северодвинск городской округ)","house":"18","id":158472,"name":"Северодвинский техникум социальной инфраструктуры","post":"164515","street":"Советских Космонавтов","x":39.78440065,"y":64.54400082}},{"type":"Feature","geometry":{"type":"Point","coordinates":[39.8154459300001,64.60576180000004]},"properties":{"city":"Северодвинск (Северодвинск городской округ)","house":"37","id":160775,"name":"Ok, студия английского языка","post":"164524","street":"Октябрьская","x":39.81544593,"y":64.6057618}},{"type":"Feature","geometry":{"type":"Point","coordinates":[39.81743621000009,64.57274894000008]},"properties":{"city":"Северодвинск (Северодвинск городской округ)","house":"58","id":161485,"name":"Рубин-север","post":"","street":"Архангельское шоссе","x":39.81743621,"y":64.57274894}},{"type":"Feature","geometry":{"type":"Point","coordinates":[39.8038939200001,64.56305411000002]},"properties":{"city":"Северодвинск (Северодвинск городской округ)","house":"6","id":162910,"name":"Северный (Арктический) федеральный университет им. М.В. Ломоносова, ФГАОУ ВО","post":"164500","street":"Капитана Воронина","x":39.80389392,"y":64.56305411}},{"type":"Feature","geometry":{"type":"Point","coordinates":[39.75967495000003,64.55049768000006]},"properties":{"city":"Северодвинск (Северодвинск городской округ)","house":"10","id":164199,"name":"Средняя общеобразовательная школа №2, МАОУ, г. Северодвинск","post":"164522","street":"Трухинова","x":39.75967495,"y":64.55049768}},{"type":"Feature","geometry":{"type":"Point","coordinates":[39.83775960000004,64.56360207000012]},"properties":{"city":"Северодвинск (Северодвинск городской округ)","house":"11а","id":165452,"name":"Центр подготовки и развития массажистов, ООО","post":"164520","street":"Профсоюзная","x":39.8377596,"y":64.56360207}},{"type":"Feature","geometry":{"type":"Point","coordinates":[39.785932260000045,64.55822945000014]},"properties":{"city":"Северодвинск (Северодвинск городской округ)","house":"34","id":169634,"name":"Техникум судостроения и машиностроения, ГБПОУ","post":"164512","street":"Карла Маркса","x":39.78593226,"y":64.55822945}},{"type":"Feature","geometry":{"type":"Point","coordinates":[39.76473997000013,64.5469102300001]},"properties":{"city":"Северодвинск (Северодвинск городской округ)","house":"103","id":174494,"name":"Ok, студия английского языка","post":"164522","street":"Ломоносова","x":39.76473997,"y":64.54691023}},{"type":"Feature","geometry":{"type":"Point","coordinates":[39.79765036000004,64.56188532000007]},"properties":{"city":"Северодвинск (Северодвинск городской округ)","house":"7Б","id":181401,"name":"Средняя общеобразовательная школа №20 с углубленным изучением социально-экономических дисциплин","post":"164500","street":"Труда проспект","x":39.79765036,"y":64.56188532}},{"type":"Feature","geometry":{"type":"Point","coordinates":[39.774965760000065,64.53939256000007]},"properties":{"city":"Северодвинск (Северодвинск городской округ)","house":"56а","id":182491,"name":"Средняя общеобразовательная школа №29, МБОУ","post":"164523","street":"Морской проспект","x":39.77496576,"y":64.53939256}},{"type":"Feature","geometry":{"type":"Point","coordinates":[39.83181607000006,64.5619237500001]},"properties":{"city":"Северодвинск (Северодвинск городской округ)","house":"39","id":182726,"name":"Коммерческая школа (техникум), ЧПОУ","post":"164501","street":"Индустриальная","x":39.83181607,"y":64.56192375}},{"type":"Feature","geometry":{"type":"Point","coordinates":[39.83775960000004,64.56360207000012]},"properties":{"city":"Северодвинск (Северодвинск городской округ)","house":"11а","id":182993,"name":"Творческий салон","post":"164520","street":"Профсоюзная","x":39.8377596,"y":64.56360207}},{"type":"Feature","geometry":{"type":"Point","coordinates":[39.80204522000002,64.56273160000006]},"properties":{"city":"Северодвинск (Северодвинск городской округ)","house":"6а","id":183180,"name":"Северный (Арктический) федеральный университет им. М.В. Ломоносова, ФГАОУ ВО","post":"164500","street":"Капитана Воронина","x":39.80204522,"y":64.5627316}},{"type":"Feature","geometry":{"type":"Point","coordinates":[39.76731694000008,64.54411163000006]},"properties":{"city":"Северодвинск (Северодвинск городской округ)","house":"6а","id":183822,"name":"Средняя общеобразовательная школа №30 с дошкольным отделением, МАОУ Средняя общеобразовательная школа №30, г. Северодвинск","post":"164522","street":"Советских Космонавтов","x":39.76731694,"y":64.54411163}},{"type":"Feature","geometry":{"type":"Point","coordinates":[39.76507896000002,64.5465120100001]},"properties":{"city":"Северодвинск (Северодвинск городской округ)","house":"107","id":186093,"name":"Терра Когнита, центр иностранных языков","post":"164522","street":"Ломоносова","x":39.76507896,"y":64.54651201}},{"type":"Feature","geometry":{"type":"Point","coordinates":[39.80153195000001,64.59895979000008]},"properties":{"city":"Северодвинск (Северодвинск городской округ)","house":"8а","id":187180,"name":"Средняя общеобразовательная школа №24 с дошкольным отделением","post":"164509","street":"Северная","x":39.80153195,"y":64.59895979}},{"type":"Feature","geometry":{"type":"Point","coordinates":[39.76829582000012,64.55118430000007]},"properties":{"city":"Северодвинск (Северодвинск городской округ)","house":"16","id":191333,"name":"Лингвистическая гимназия №27","post":"164514","street":"Арктическая","x":39.76829582,"y":64.5511843}},{"type":"Feature","geometry":{"type":"Point","coordinates":[39.77248749000011,64.54635959000002]},"properties":{"city":"Северодвинск (Северодвинск городской округ)","house":"3а","id":194108,"name":"Средняя общеобразовательная школа №30 с дошкольным отделением, МАОУ Средняя общеобразовательная школа №30, г. Северодвинск","post":"164515","street":"Коновалова","x":39.77248749,"y":64.54635959}}],"type":"FeatureCollection"}