{"features":[{"type":"Feature","geometry":{"type":"Point","coordinates":[40.82043431000006,64.41319733000009]},"properties":{"city":"Новодвинск (Новодвинск городской округ)","house":"15","id":12842,"name":"Средняя общеобразовательная школа №1, МОУ, г. Новодвинск","post":"164900","street":"50-летия Октября","x":40.82043431,"y":64.41319733}},{"type":"Feature","geometry":{"type":"Point","coordinates":[40.82817565000013,64.41611139000014]},"properties":{"city":"Новодвинск (Новодвинск городской округ)","house":"3","id":16121,"name":"Вместе, репетиторский центр","post":"164900","street":"Ворошилова","x":40.82817565,"y":64.41611139}},{"type":"Feature","geometry":{"type":"Point","coordinates":[40.818171450000115,64.40645666000009]},"properties":{"city":"Новодвинск (Новодвинск городской округ)","house":"43","id":16417,"name":"Средняя общеобразовательная школа №3, МОУ, г. Новодвинск","post":"164903","street":"Двинская","x":40.81817145,"y":64.40645666}},{"type":"Feature","geometry":{"type":"Point","coordinates":[40.81073574000007,64.41517955000006]},"properties":{"city":"Новодвинск (Новодвинск городской округ)","house":"14","id":19510,"name":"Новодвинская гимназия","post":"164902","street":"Мельникова","x":40.81073574,"y":64.41517955}},{"type":"Feature","geometry":{"type":"Point","coordinates":[40.8019435000001,64.41861403000013]},"properties":{"city":"Новодвинск (Новодвинск городской округ)","house":"5","id":22205,"name":"Средняя общеобразовательная школа №7, г. Новодвинск","post":"164902","street":"Космонавтов","x":40.8019435,"y":64.41861403}},{"type":"Feature","geometry":{"type":"Point","coordinates":[40.787018420000074,64.41973178000006]},"properties":{"city":"Новодвинск (Новодвинск городской округ)","house":"15","id":30457,"name":"Средняя общеобразовательная школа №2 им. В.И. Захарова, г. Новодвинск","post":"164901","street":"Солнечная","x":40.78701842,"y":64.41973178}},{"type":"Feature","geometry":{"type":"Point","coordinates":[40.807113720000096,64.41377493000002]},"properties":{"city":"Новодвинск (Новодвинск городской округ)","house":"13","id":53200,"name":"Специальная коррекционная общеобразовательная школа №5, Архангельской области","post":"164900","street":"3-й Пятилетки","x":40.80711372,"y":64.41377493}},{"type":"Feature","geometry":{"type":"Point","coordinates":[40.808665690000126,64.41882143000004]},"properties":{"city":"Новодвинск (Новодвинск городской округ)","house":"38а","id":55295,"name":"Детская школа искусств, МОУ ДО, г. Новодвинск","post":"164902","street":"50-летия Октября","x":40.80866569,"y":64.41882143}},{"type":"Feature","geometry":{"type":"Point","coordinates":[40.79591723000006,64.4147193300001]},"properties":{"city":"Новодвинск (Новодвинск городской округ)","house":"1 к1","id":61652,"name":"Средняя общеобразовательная школа №7, г. Новодвинск","post":"164901","street":"Солнечная","x":40.79591723,"y":64.41471933}},{"type":"Feature","geometry":{"type":"Point","coordinates":[40.81750423000009,64.40810319000013]},"properties":{"city":"Новодвинск (Новодвинск городской округ)","house":"51","id":76397,"name":"Новодвинский индустриальный техникум, ГАПОУ","post":"164903","street":"Пролетарская","x":40.81750423,"y":64.40810319}},{"type":"Feature","geometry":{"type":"Point","coordinates":[40.82044299000009,64.40931396000005]},"properties":{"city":"Новодвинск (Новодвинск городской округ)","house":"43","id":88099,"name":"Средняя общеобразовательная школа №6, МОУ, г. Новодвинск","post":"164900","street":"Уборевича","x":40.82044299,"y":64.40931396}},{"type":"Feature","geometry":{"type":"Point","coordinates":[40.80786589000012,64.40791141000008]},"properties":{"city":"Новодвинск (Новодвинск городской округ)","house":"32","id":105083,"name":"Палитра знаний, студия английского и французского языков","post":"164903","street":"Советов","x":40.80786589,"y":64.40791141}},{"type":"Feature","geometry":{"type":"Point","coordinates":[40.815088460000005,64.40784655000007]},"properties":{"city":"Новодвинск (Новодвинск городской округ)","house":"45","id":128212,"name":"Новодвинский индустриальный техникум, ГАПОУ","post":"164903","street":"Двинская","x":40.81508846,"y":64.40784655}},{"type":"Feature","geometry":{"type":"Point","coordinates":[40.81984535000006,64.41187173000003]},"properties":{"city":"Новодвинск (Новодвинск городской округ)","house":"24","id":162702,"name":"Новодвинский индустриальный техникум, ГАПОУ","post":"164900","street":"Советов","x":40.81984535,"y":64.41187173}}],"type":"FeatureCollection"}