{"features":[{"type":"Feature","geometry":{"type":"Point","coordinates":[40.70278738000008,64.59122618000004]},"properties":{"city":"Талажский авиагородок","house":"23","id":97913,"name":"Основная школа №12 им. Героя Российской Федерации генерал-полковника И.В. Коробова с дошкольным отделением","post":"163053","street":"Авиационная","x":40.70278738,"y":64.59122618}},{"type":"Feature","geometry":{"type":"Point","coordinates":[40.701842360000036,64.59199508000009]},"properties":{"city":"Талажский авиагородок","house":"24","id":161646,"name":"Основная школа №12 им. Героя Российской Федерации генерал-полковника И.В. Коробова с дошкольным отделением","post":"163053","street":"Авиационная","x":40.70184236,"y":64.59199508}},{"type":"Feature","geometry":{"type":"Point","coordinates":[40.71222268000002,64.59354257000011]},"properties":{"city":"Талажский авиагородок","house":"5","id":162847,"name":"Архангельский авиационный учебный центр, ФГАУ","post":"163053","street":"Аэропорт Архангельск","x":40.71222268,"y":64.59354257}},{"type":"Feature","geometry":{"type":"Point","coordinates":[40.712966770000044,64.59156266000005]},"properties":{"city":"Талажский авиагородок","house":"11 к1","id":170122,"name":"Основная школа №12 им. Героя Российской Федерации генерал-полковника И.В. Коробова с дошкольным отделением","post":"163053","street":"Авиационная","x":40.71296677,"y":64.59156266}}],"type":"FeatureCollection"}